[{"cityId":291074,"name":"Ras Al Khaimah City","altName":"","country":"AE","featureCode":"PPLA","adminCode":"05","population":351943,"loc":{"type":"Point","coordinates":[55.9432,25.78953]}},{"cityId":292223,"name":"Dubai","altName":"","country":"AE","featureCode":"PPLA","adminCode":"03","population":2956587,"loc":{"type":"Point","coordinates":[55.30927,25.07725]}},{"cityId":292672,"name":"Sharjah","altName":"","country":"AE","featureCode":"PPLA","adminCode":"06","population":1324473,"loc":{"type":"Point","coordinates":[55.41206,25.33737]}},{"cityId":292932,"name":"Ajman City","altName":"","country":"AE","featureCode":"PPLA","adminCode":"02","population":490035,"loc":{"type":"Point","coordinates":[55.47878,25.40177]}},{"cityId":292968,"name":"Abu Dhabi","altName":"","country":"AE","featureCode":"PPLC","adminCode":"01","population":603492,"loc":{"type":"Point","coordinates":[54.39696,24.45118]}},{"cityId":12042053,"name":"Musaffah","altName":"","country":"AE","featureCode":"PPL","adminCode":"01","population":243341,"loc":{"type":"Point","coordinates":[54.48267,24.35893]}},{"cityId":1133616,"name":"Mazār-e Sharīf","altName":"","country":"AF","featureCode":"PPLA","adminCode":"30","population":303282,"loc":{"type":"Point","coordinates":[67.11087,36.70904]}},{"cityId":1138336,"name":"Kandahār","altName":"","country":"AF","featureCode":"PPLA","adminCode":"23","population":391190,"loc":{"type":"Point","coordinates":[65.71013,31.61332]}},{"cityId":1138958,"name":"Kabul","altName":"","country":"AF","featureCode":"PPLC","adminCode":"13","population":3043532,"loc":{"type":"Point","coordinates":[69.17233,34.52813]}},{"cityId":1139715,"name":"Jalālābād","altName":"","country":"AF","featureCode":"PPLA","adminCode":"18","population":200331,"loc":{"type":"Point","coordinates":[70.45153,34.42647]}},{"cityId":1140026,"name":"Herāt","altName":"","country":"AF","featureCode":"PPLA","adminCode":"11","population":272806,"loc":{"type":"Point","coordinates":[62.19967,34.34817]}},{"cityId":3183875,"name":"Tirana","altName":"","country":"AL","featureCode":"PPLC","adminCode":"50","population":374801,"loc":{"type":"Point","coordinates":[19.81889,41.3275]}},{"cityId":616052,"name":"Yerevan","altName":"","country":"AM","featureCode":"PPLC","adminCode":"11","population":1093485,"loc":{"type":"Point","coordinates":[44.51361,40.18111]}},{"cityId":2239076,"name":"N’dalatando","altName":"","country":"AO","featureCode":"PPLA","adminCode":"05","population":383100,"loc":{"type":"Point","coordinates":[14.91162,-9.29782]}},{"cityId":2240449,"name":"Luanda","altName":"","country":"AO","featureCode":"PPLC","adminCode":"20","population":2776168,"loc":{"type":"Point","coordinates":[13.23432,-8.83682]}},{"cityId":3347939,"name":"Lobito","altName":"","country":"AO","featureCode":"PPL","adminCode":"01","population":207932,"loc":{"type":"Point","coordinates":[13.53601,-12.3644]}},{"cityId":3348313,"name":"Huambo","altName":"","country":"AO","featureCode":"PPLA","adminCode":"08","population":226145,"loc":{"type":"Point","coordinates":[15.73917,-12.77611]}},{"cityId":3429577,"name":"Resistencia","altName":"","country":"AR","featureCode":"PPLA","adminCode":"03","population":387158,"loc":{"type":"Point","coordinates":[-58.98389,-27.46056]}},{"cityId":3429652,"name":"Quilmes","altName":"","country":"AR","featureCode":"PPLA2","adminCode":"01","population":230000,"loc":{"type":"Point","coordinates":[-58.26374,-34.72904]}},{"cityId":3429886,"name":"Posadas","altName":"","country":"AR","featureCode":"PPLA","adminCode":"14","population":323739,"loc":{"type":"Point","coordinates":[-55.89608,-27.36708]}},{"cityId":3429980,"name":"Pilar","altName":"","country":"AR","featureCode":"PPLA2","adminCode":"01","population":226517,"loc":{"type":"Point","coordinates":[-58.9142,-34.45866]}},{"cityId":3430545,"name":"Morón","altName":"","country":"AR","featureCode":"PPLA2","adminCode":"01","population":319934,"loc":{"type":"Point","coordinates":[-58.61956,-34.6509]}},{"cityId":3430697,"name":"Merlo","altName":"","country":"AR","featureCode":"PPLA2","adminCode":"01","population":244168,"loc":{"type":"Point","coordinates":[-58.72927,-34.66627]}},{"cityId":3430863,"name":"Mar del Plata","altName":"","country":"AR","featureCode":"PPLA2","adminCode":"01","population":553935,"loc":{"type":"Point","coordinates":[-57.5562,-38.00042]}},{"cityId":3432043,"name":"La Plata","altName":"","country":"AR","featureCode":"PPLA","adminCode":"01","population":694167,"loc":{"type":"Point","coordinates":[-57.95453,-34.92145]}},{"cityId":3433899,"name":"Formosa","altName":"","country":"AR","featureCode":"PPLA","adminCode":"09","population":221383,"loc":{"type":"Point","coordinates":[-58.17313,-26.18489]}},{"cityId":3435217,"name":"Corrientes","altName":"","country":"AR","featureCode":"PPLA","adminCode":"06","population":339067,"loc":{"type":"Point","coordinates":[-58.8344,-27.46784]}},{"cityId":3435910,"name":"Buenos Aires","altName":"","country":"AR","featureCode":"PPLC","adminCode":"07","population":13076300,"loc":{"type":"Point","coordinates":[-58.37723,-34.61315]}},{"cityId":3835869,"name":"Santiago del Estero","altName":"","country":"AR","featureCode":"PPLA","adminCode":"22","population":354692,"loc":{"type":"Point","coordinates":[-64.26149,-27.79511]}},{"cityId":3836277,"name":"Santa Fe","altName":"","country":"AR","featureCode":"PPLA","adminCode":"21","population":489505,"loc":{"type":"Point","coordinates":[-60.70868,-31.64881]}},{"cityId":3836564,"name":"San Salvador de Jujuy","altName":"","country":"AR","featureCode":"PPLA","adminCode":"10","population":305891,"loc":{"type":"Point","coordinates":[-65.29712,-24.19457]}},{"cityId":3836873,"name":"San Miguel de Tucumán","altName":"","country":"AR","featureCode":"PPLA","adminCode":"24","population":781023,"loc":{"type":"Point","coordinates":[-65.2226,-26.82414]}},{"cityId":3837213,"name":"San Juan","altName":"","country":"AR","featureCode":"PPLA","adminCode":"18","population":447048,"loc":{"type":"Point","coordinates":[-68.53639,-31.5375]}},{"cityId":3838233,"name":"Salta","altName":"","country":"AR","featureCode":"PPLA","adminCode":"17","population":512686,"loc":{"type":"Point","coordinates":[-65.41166,-24.7859]}},{"cityId":3838583,"name":"Rosario","altName":"","country":"AR","featureCode":"PPLA2","adminCode":"21","population":1173533,"loc":{"type":"Point","coordinates":[-60.63932,-32.94682]}},{"cityId":3841956,"name":"Paraná","altName":"","country":"AR","featureCode":"PPLA","adminCode":"08","population":262295,"loc":{"type":"Point","coordinates":[-60.52897,-31.73271]}},{"cityId":3843123,"name":"Neuquén","altName":"","country":"AR","featureCode":"PPLA","adminCode":"15","population":242092,"loc":{"type":"Point","coordinates":[-68.0591,-38.95161]}},{"cityId":3844421,"name":"Mendoza","altName":"","country":"AR","featureCode":"PPLA","adminCode":"13","population":876884,"loc":{"type":"Point","coordinates":[-68.82717,-32.89084]}},{"cityId":3860259,"name":"Córdoba","altName":"","country":"AR","featureCode":"PPLA","adminCode":"05","population":1428214,"loc":{"type":"Point","coordinates":[-64.18105,-31.4135]}},{"cityId":3865086,"name":"Bahía Blanca","altName":"","country":"AR","featureCode":"PPLA2","adminCode":"01","population":276546,"loc":{"type":"Point","coordinates":[-62.27243,-38.71959]}},{"cityId":12076997,"name":"José C. Paz","altName":"","country":"AR","featureCode":"PPLA2","adminCode":"01","population":230208,"loc":{"type":"Point","coordinates":[-58.76813,-34.51541]}},{"cityId":2761369,"name":"Vienna","altName":"","country":"AT","featureCode":"PPLC","adminCode":"09","population":1691468,"loc":{"type":"Point","coordinates":[16.37208,48.20849]}},{"cityId":2772400,"name":"Linz","altName":"","country":"AT","featureCode":"PPLA","adminCode":"04","population":204846,"loc":{"type":"Point","coordinates":[14.28611,48.30639]},"muni":"40101"},{"cityId":2778067,"name":"Graz","altName":"","country":"AT","featureCode":"PPLA","adminCode":"06","population":222326,"loc":{"type":"Point","coordinates":[15.45,47.06667]},"muni":"60101"},{"cityId":8063098,"name":"Favoriten","altName":"","country":"AT","featureCode":"PPLX","adminCode":"09","population":201882,"loc":{"type":"Point","coordinates":[16.38233,48.16116]},"muni":"910"},{"cityId":2063523,"name":"Perth","altName":"","country":"AU","featureCode":"PPLA","adminCode":"08","population":1896548,"loc":{"type":"Point","coordinates":[115.8614,-31.95224]}},{"cityId":2078025,"name":"Adelaide","altName":"","country":"AU","featureCode":"PPLA","adminCode":"05","population":1225235,"loc":{"type":"Point","coordinates":[138.59863,-34.92866]}},{"cityId":2147714,"name":"Sydney","altName":"","country":"AU","featureCode":"PPLA","adminCode":"02","population":4627345,"loc":{"type":"Point","coordinates":[151.20732,-33.86785]}},{"cityId":2155472,"name":"Newcastle","altName":"","country":"AU","featureCode":"PPLA2","adminCode":"02","population":308308,"loc":{"type":"Point","coordinates":[151.7801,-32.92953]}},{"cityId":2158177,"name":"Melbourne","altName":"","country":"AU","featureCode":"PPLA","adminCode":"07","population":4246375,"loc":{"type":"Point","coordinates":[144.96332,-37.814]}},{"cityId":2163355,"name":"Hobart","altName":"","country":"AU","featureCode":"PPLA","adminCode":"06","population":216656,"loc":{"type":"Point","coordinates":[147.32941,-42.87936]}},{"cityId":2165087,"name":"Gold Coast","altName":"","country":"AU","featureCode":"PPL","adminCode":"04","population":591473,"loc":{"type":"Point","coordinates":[153.43088,-28.00029]}},{"cityId":2165798,"name":"Geelong","altName":"","country":"AU","featureCode":"PPL","adminCode":"07","population":226034,"loc":{"type":"Point","coordinates":[144.36069,-38.14711]}},{"cityId":2171507,"name":"Wollongong","altName":"","country":"AU","featureCode":"PPLA2","adminCode":"02","population":292190,"loc":{"type":"Point","coordinates":[150.89345,-34.424]}},{"cityId":2172517,"name":"Canberra","altName":"","country":"AU","featureCode":"PPLC","adminCode":"01","population":367752,"loc":{"type":"Point","coordinates":[149.12807,-35.28346]}},{"cityId":2174003,"name":"Brisbane","altName":"","country":"AU","featureCode":"PPLA","adminCode":"04","population":2189878,"loc":{"type":"Point","coordinates":[153.02809,-27.46794]}},{"cityId":7281838,"name":"Logan City","altName":"","country":"AU","featureCode":"PPL","adminCode":"04","population":282673,"loc":{"type":"Point","coordinates":[153.10944,-27.63917]}},{"cityId":147622,"name":"Lankaran","altName":"","country":"AZ","featureCode":"PPLA","adminCode":"29","population":240300,"loc":{"type":"Point","coordinates":[48.85062,38.75428]}},{"cityId":584923,"name":"Sumqayıt","altName":"","country":"AZ","featureCode":"PPLA","adminCode":"54","population":265150,"loc":{"type":"Point","coordinates":[49.66861,40.58972]}},{"cityId":586523,"name":"Ganja","altName":"","country":"AZ","featureCode":"PPLA","adminCode":"20","population":313300,"loc":{"type":"Point","coordinates":[46.36056,40.68278]}},{"cityId":587084,"name":"Baku","altName":"","country":"AZ","featureCode":"PPLC","adminCode":"09","population":1116513,"loc":{"type":"Point","coordinates":[49.89201,40.37767]}},{"cityId":3191281,"name":"Sarajevo","altName":"","country":"BA","featureCode":"PPLC","adminCode":"01","population":696731,"loc":{"type":"Point","coordinates":[18.35644,43.84864]}},{"cityId":3204541,"name":"Banja Luka","altName":"","country":"BA","featureCode":"PPLA","adminCode":"02","population":221106,"loc":{"type":"Point","coordinates":[17.19386,44.77842]}},{"cityId":1185098,"name":"Tungi","altName":"","country":"BD","featureCode":"PPL","adminCode":"81","population":337579,"loc":{"type":"Point","coordinates":[90.40232,23.89154]},"muni":"303330","muniSub":"30333000"},{"cityId":1185099,"name":"Sylhet","altName":"","country":"BD","featureCode":"PPLA","adminCode":"86","population":237000,"loc":{"type":"Point","coordinates":[91.87198,24.89904]},"muni":"609162","muniSub":"60916200"},{"cityId":1185107,"name":"Shibganj","altName":"","country":"BD","featureCode":"PPL","adminCode":"83","population":378701,"loc":{"type":"Point","coordinates":[89.32266,25.00146]},"muni":"501094","muniSub":"50109479"},{"cityId":1185117,"name":"Narsingdi","altName":"","country":"BD","featureCode":"PPL","adminCode":"81","population":281080,"loc":{"type":"Point","coordinates":[90.71768,23.92298]},"muni":"306860","muniSub":"30686000"},{"cityId":1185128,"name":"Rājshāhi","altName":"","country":"BD","featureCode":"PPLA","adminCode":"83","population":700133,"loc":{"type":"Point","coordinates":[88.60114,24.374]},"muni":"508122","muniSub":"50812213"},{"cityId":1185155,"name":"Nārāyanganj","altName":"","country":"BD","featureCode":"PPL","adminCode":"81","population":223622,"loc":{"type":"Point","coordinates":[90.50298,23.61352]},"muni":"306758","muniSub":"30675800"},{"cityId":1185159,"name":"Nāgarpur","altName":"","country":"BD","featureCode":"PPL","adminCode":"81","population":238422,"loc":{"type":"Point","coordinates":[89.87696,24.05783]},"muni":"309376","muniSub":"30937673"},{"cityId":1185162,"name":"Mymensingh","altName":"","country":"BD","featureCode":"PPLA","adminCode":"H","population":225126,"loc":{"type":"Point","coordinates":[90.40646,24.75636]},"muni":"306152","muniSub":"30615200"},{"cityId":1185186,"name":"Comilla","altName":"","country":"BD","featureCode":"PPL","adminCode":"84","population":389411,"loc":{"type":"Point","coordinates":[91.18503,23.46186]},"muni":"201967","muniSub":"20196700"},{"cityId":1185188,"name":"Rangpur","altName":"","country":"BD","featureCode":"PPLA","adminCode":"87","population":343122,"loc":{"type":"Point","coordinates":[89.25166,25.74664]},"muni":"558549","muniSub":"55854900"},{"cityId":1185241,"name":"Dhaka","altName":"","country":"BD","featureCode":"PPLC","adminCode":"81","population":10356500,"loc":{"type":"Point","coordinates":[90.40744,23.7104]},"muni":"302640","muniSub":"30264072"},{"cityId":1185281,"name":"Bagerhat","altName":"","country":"BD","featureCode":"PPLA2","adminCode":"82","population":266388,"loc":{"type":"Point","coordinates":[89.79123,22.65657]},"muni":"400108","muniSub":"40010800"},{"cityId":1203891,"name":"Dinājpur","altName":"","country":"BD","featureCode":"PPL","adminCode":"87","population":206234,"loc":{"type":"Point","coordinates":[88.63779,25.62745]},"muni":"552764","muniSub":"55276400"},{"cityId":1205733,"name":"Chittagong","altName":"","country":"BD","featureCode":"PPLA","adminCode":"84","population":3920222,"loc":{"type":"Point","coordinates":[91.83168,22.3384]},"muni":"201541","muniSub":"20154122"},{"cityId":1336134,"name":"Cox’s Bāzār","altName":"","country":"BD","featureCode":"PPL","adminCode":"84","population":253788,"loc":{"type":"Point","coordinates":[92.00955,21.43973]},"muni":"202224","muniSub":"20222447"},{"cityId":1336135,"name":"Khulna","altName":"","country":"BD","featureCode":"PPLA","adminCode":"82","population":1342339,"loc":{"type":"Point","coordinates":[89.56439,22.80979]},"muni":"404751","muniSub":"40475123"},{"cityId":1336137,"name":"Barisāl","altName":"","country":"BD","featureCode":"PPLA","adminCode":"85","population":202242,"loc":{"type":"Point","coordinates":[90.37013,22.70497]},"muni":"100651","muniSub":"10065100"},{"cityId":1336140,"name":"Jessore","altName":"","country":"BD","featureCode":"PPL","adminCode":"82","population":243987,"loc":{"type":"Point","coordinates":[89.21371,23.16971]},"muni":"404147","muniSub":"40414700"},{"cityId":1337233,"name":"Bogra","altName":"","country":"BD","featureCode":"PPL","adminCode":"83","population":210000,"loc":{"type":"Point","coordinates":[89.37108,24.85098]},"muni":"501020","muniSub":"50102000"},{"cityId":7483813,"name":"Natore","altName":"","country":"BD","featureCode":"PPL","adminCode":"83","population":369138,"loc":{"type":"Point","coordinates":[88.98673,24.41112]},"muni":"506963","muniSub":"50696300"},{"cityId":2797656,"name":"Gent","altName":"","country":"BE","featureCode":"PPL","adminCode":"VLG","population":231493,"loc":{"type":"Point","coordinates":[3.71667,51.05]},"muni":"44","muniSub":"44021"},{"cityId":2800481,"name":"Charleroi","altName":"","country":"BE","featureCode":"PPL","adminCode":"WAL","population":200132,"loc":{"type":"Point","coordinates":[4.44448,50.41136]},"muni":"52","muniSub":"52011"},{"cityId":2800866,"name":"Brussels","altName":"","country":"BE","featureCode":"PPLC","adminCode":"BRU","population":1019022,"loc":{"type":"Point","coordinates":[4.34878,50.85045]},"muni":"21","muniSub":"21004"},{"cityId":2803138,"name":"Antwerpen","altName":"","country":"BE","featureCode":"PPL","adminCode":"VLG","population":459805,"loc":{"type":"Point","coordinates":[4.40026,51.22047]},"muni":"11","muniSub":"11002"},{"cityId":2357048,"name":"Ouagadougou","altName":"","country":"BF","featureCode":"PPLC","adminCode":"03","population":1086505,"loc":{"type":"Point","coordinates":[-1.53388,12.36566]}},{"cityId":2362344,"name":"Bobo-Dioulasso","altName":"","country":"BF","featureCode":"PPLA","adminCode":"09","population":360106,"loc":{"type":"Point","coordinates":[-4.2979,11.17715]}},{"cityId":726050,"name":"Varna","altName":"","country":"BG","featureCode":"PPLA","adminCode":"61","population":312770,"loc":{"type":"Point","coordinates":[27.91667,43.21667]}},{"cityId":727011,"name":"Sofia","altName":"","country":"BG","featureCode":"PPLC","adminCode":"42","population":1152556,"loc":{"type":"Point","coordinates":[23.32415,42.69751]}},{"cityId":728193,"name":"Plovdiv","altName":"","country":"BG","featureCode":"PPLA","adminCode":"51","population":340494,"loc":{"type":"Point","coordinates":[24.75,42.15]}},{"cityId":425378,"name":"Bujumbura","altName":"","country":"BI","featureCode":"PPLA","adminCode":"24","population":331700,"loc":{"type":"Point","coordinates":[29.36142,-3.38193]}},{"cityId":2392087,"name":"Porto-Novo","altName":"","country":"BJ","featureCode":"PPLC","adminCode":"16","population":234168,"loc":{"type":"Point","coordinates":[2.60359,6.49646]}},{"cityId":2394560,"name":"Djougou","altName":"","country":"BJ","featureCode":"PPLA","adminCode":"13","population":237040,"loc":{"type":"Point","coordinates":[1.66598,9.70853]}},{"cityId":2394819,"name":"Cotonou","altName":"","country":"BJ","featureCode":"PPLG","adminCode":"14","population":780000,"loc":{"type":"Point","coordinates":[2.41833,6.36536]}},{"cityId":2395914,"name":"Abomey-Calavi","altName":"","country":"BJ","featureCode":"PPL","adminCode":"09","population":385755,"loc":{"type":"Point","coordinates":[2.35566,6.44852]},"muni":"11789952"},{"cityId":3903987,"name":"Sucre","altName":"","country":"BO","featureCode":"PPLC","adminCode":"01","population":224838,"loc":{"type":"Point","coordinates":[-65.26274,-19.03332]}},{"cityId":3904906,"name":"Santa Cruz de la Sierra","altName":"","country":"BO","featureCode":"PPLA","adminCode":"08","population":1364389,"loc":{"type":"Point","coordinates":[-63.18117,-17.78629]}},{"cityId":3909234,"name":"Oruro","altName":"","country":"BO","featureCode":"PPLA","adminCode":"05","population":208684,"loc":{"type":"Point","coordinates":[-67.15,-17.98333]}},{"cityId":3911925,"name":"La Paz","altName":"","country":"BO","featureCode":"PPLG","adminCode":"04","population":812799,"loc":{"type":"Point","coordinates":[-68.15,-16.5]}},{"cityId":3919968,"name":"Cochabamba","altName":"","country":"BO","featureCode":"PPLA","adminCode":"02","population":900414,"loc":{"type":"Point","coordinates":[-66.1568,-17.3895]}},{"cityId":3386496,"name":"Teresina","altName":"","country":"BR","featureCode":"PPLA","adminCode":"20","population":744512,"loc":{"type":"Point","coordinates":[-42.80194,-5.08917]}},{"cityId":3388368,"name":"São Luís","altName":"","country":"BR","featureCode":"PPLA","adminCode":"13","population":917237,"loc":{"type":"Point","coordinates":[-44.30278,-2.52972]}},{"cityId":3390760,"name":"Recife","altName":"","country":"BR","featureCode":"PPLA","adminCode":"30","population":1478098,"loc":{"type":"Point","coordinates":[-34.88111,-8.05389]}},{"cityId":3392740,"name":"Paulista","altName":"","country":"BR","featureCode":"PPL","adminCode":"30","population":289971,"loc":{"type":"Point","coordinates":[-34.87306,-7.94083]}},{"cityId":3393536,"name":"Olinda","altName":"","country":"BR","featureCode":"PPL","adminCode":"30","population":366754,"loc":{"type":"Point","coordinates":[-34.85528,-8.00889]}},{"cityId":3394023,"name":"Natal","altName":"","country":"BR","featureCode":"PPLA","adminCode":"22","population":763043,"loc":{"type":"Point","coordinates":[-35.20944,-5.795]}},{"cityId":3394682,"name":"Mossoró","altName":"","country":"BR","featureCode":"PPL","adminCode":"22","population":202005,"loc":{"type":"Point","coordinates":[-37.34417,-5.1875]}},{"cityId":3395981,"name":"Maceió","altName":"","country":"BR","featureCode":"PPLA","adminCode":"02","population":954991,"loc":{"type":"Point","coordinates":[-35.73528,-9.66583]}},{"cityId":3396016,"name":"Macapá","altName":"","country":"BR","featureCode":"PPLA","adminCode":"03","population":338936,"loc":{"type":"Point","coordinates":[-51.06639,0.03889]}},{"cityId":3397147,"name":"Juazeiro do Norte","altName":"","country":"BR","featureCode":"PPL","adminCode":"06","population":225230,"loc":{"type":"Point","coordinates":[-39.31528,-7.21306]}},{"cityId":3397277,"name":"João Pessoa","altName":"","country":"BR","featureCode":"PPLA","adminCode":"17","population":650883,"loc":{"type":"Point","coordinates":[-34.86306,-7.115]}},{"cityId":3397838,"name":"Jaboatão","altName":"","country":"BR","featureCode":"PPLL","adminCode":"30","population":702621,"loc":{"type":"Point","coordinates":[-35.00139,-8.18028]}},{"cityId":3398269,"name":"Imperatriz","altName":"","country":"BR","featureCode":"PPL","adminCode":"13","population":218106,"loc":{"type":"Point","coordinates":[-47.49167,-5.52639]}},{"cityId":3399415,"name":"Fortaleza","altName":"","country":"BR","featureCode":"PPLA","adminCode":"06","population":2400000,"loc":{"type":"Point","coordinates":[-38.54306,-3.71722]}},{"cityId":3402429,"name":"Caucaia","altName":"","country":"BR","featureCode":"PPL","adminCode":"06","population":275019,"loc":{"type":"Point","coordinates":[-38.65306,-3.73611]}},{"cityId":3402655,"name":"Caruaru","altName":"","country":"BR","featureCode":"PPLA2","adminCode":"30","population":235371,"loc":{"type":"Point","coordinates":[-35.97611,-8.28333]}},{"cityId":3403642,"name":"Campina Grande","altName":"","country":"BR","featureCode":"PPL","adminCode":"17","population":348936,"loc":{"type":"Point","coordinates":[-35.88111,-7.23056]}},{"cityId":3405870,"name":"Belém","altName":"","country":"BR","featureCode":"PPLA","adminCode":"16","population":1407737,"loc":{"type":"Point","coordinates":[-48.50444,-1.45583]}},{"cityId":3407669,"name":"Ananindeua","altName":"","country":"BR","featureCode":"PPL","adminCode":"16","population":433956,"loc":{"type":"Point","coordinates":[-48.37222,-1.36556]}},{"cityId":3444876,"name":"Volta Redonda","altName":"","country":"BR","featureCode":"PPL","adminCode":"21","population":249580,"loc":{"type":"Point","coordinates":[-44.10417,-22.52306]}},{"cityId":3444914,"name":"Vitória da Conquista","altName":"","country":"BR","featureCode":"PPL","adminCode":"05","population":253137,"loc":{"type":"Point","coordinates":[-40.83944,-14.86611]}},{"cityId":3444924,"name":"Vitória","altName":"","country":"BR","featureCode":"PPLA","adminCode":"08","population":312656,"loc":{"type":"Point","coordinates":[-40.33778,-20.31944]}},{"cityId":3445026,"name":"Vila Velha","altName":"","country":"BR","featureCode":"PPL","adminCode":"08","population":394930,"loc":{"type":"Point","coordinates":[-40.2925,-20.32972]}},{"cityId":3445156,"name":"Viamão","altName":"","country":"BR","featureCode":"PPL","adminCode":"23","population":285269,"loc":{"type":"Point","coordinates":[-51.02333,-30.08111]}},{"cityId":3445451,"name":"Várzea Grande","altName":"","country":"BR","featureCode":"PPL","adminCode":"14","population":249752,"loc":{"type":"Point","coordinates":[-56.1325,-15.64667]}},{"cityId":3445831,"name":"Uberlândia","altName":"","country":"BR","featureCode":"PPL","adminCode":"15","population":563536,"loc":{"type":"Point","coordinates":[-48.27722,-18.91861]}},{"cityId":3445839,"name":"Uberaba","altName":"","country":"BR","featureCode":"PPL","adminCode":"15","population":260843,"loc":{"type":"Point","coordinates":[-47.93194,-19.74833]}},{"cityId":3446682,"name":"Taubaté","altName":"","country":"BR","featureCode":"PPLA2","adminCode":"27","population":251641,"loc":{"type":"Point","coordinates":[-45.55528,-23.02639]}},{"cityId":3447186,"name":"Taboão da Serra","altName":"","country":"BR","featureCode":"PPLA2","adminCode":"27","population":214523,"loc":{"type":"Point","coordinates":[-46.79167,-23.62611]}},{"cityId":3447212,"name":"Suzano","altName":"","country":"BR","featureCode":"PPL","adminCode":"27","population":283314,"loc":{"type":"Point","coordinates":[-46.31083,-23.5425]}},{"cityId":3447259,"name":"Sumaré","altName":"","country":"BR","featureCode":"PPLA2","adminCode":"27","population":227977,"loc":{"type":"Point","coordinates":[-47.26694,-22.82194]}},{"cityId":3447399,"name":"Sorocaba","altName":"","country":"BR","featureCode":"PPLA2","adminCode":"27","population":558862,"loc":{"type":"Point","coordinates":[-47.45806,-23.50167]}},{"cityId":3447624,"name":"Sete Lagoas","altName":"","country":"BR","featureCode":"PPL","adminCode":"15","population":201334,"loc":{"type":"Point","coordinates":[-44.24667,-19.46583]}},{"cityId":3447779,"name":"Serra","altName":"","country":"BR","featureCode":"PPL","adminCode":"08","population":394153,"loc":{"type":"Point","coordinates":[-40.30778,-20.12861]}},{"cityId":3448136,"name":"São Vicente","altName":"","country":"BR","featureCode":"PPL","adminCode":"27","population":324457,"loc":{"type":"Point","coordinates":[-46.39194,-23.96306]}},{"cityId":3448439,"name":"São Paulo","altName":"","country":"BR","featureCode":"PPLA","adminCode":"27","population":10021295,"loc":{"type":"Point","coordinates":[-46.63611,-23.5475]}},{"cityId":3448622,"name":"São Leopoldo","altName":"","country":"BR","featureCode":"PPL","adminCode":"23","population":209229,"loc":{"type":"Point","coordinates":[-51.14722,-29.76028]}},{"cityId":3448636,"name":"São José dos Campos","altName":"","country":"BR","featureCode":"PPLA2","adminCode":"27","population":613764,"loc":{"type":"Point","coordinates":[-45.88694,-23.17944]}},{"cityId":3448639,"name":"São José do Rio Preto","altName":"","country":"BR","featureCode":"PPLA2","adminCode":"27","population":374699,"loc":{"type":"Point","coordinates":[-49.37944,-20.81972]}},{"cityId":3448742,"name":"São José","altName":"","country":"BR","featureCode":"PPL","adminCode":"26","population":200000,"loc":{"type":"Point","coordinates":[-49.1632,-28.21171]}},{"cityId":3448877,"name":"São João de Meriti","altName":"","country":"BR","featureCode":"PPL","adminCode":"21","population":454849,"loc":{"type":"Point","coordinates":[-43.37222,-22.80389]}},{"cityId":3449319,"name":"São Carlos","altName":"","country":"BR","featureCode":"PPL","adminCode":"27","population":205035,"loc":{"type":"Point","coordinates":[-47.89083,-22.0175]}},{"cityId":3449344,"name":"São Bernardo do Campo","altName":"","country":"BR","featureCode":"PPL","adminCode":"27","population":743372,"loc":{"type":"Point","coordinates":[-46.565,-23.69389]}},{"cityId":3449433,"name":"Santos","altName":"","country":"BR","featureCode":"PPLA2","adminCode":"27","population":411403,"loc":{"type":"Point","coordinates":[-46.33361,-23.96083]}},{"cityId":3449701,"name":"Santo André","altName":"","country":"BR","featureCode":"PPL","adminCode":"27","population":662373,"loc":{"type":"Point","coordinates":[-46.53833,-23.66389]}},{"cityId":3450083,"name":"Santa Maria","altName":"","country":"BR","featureCode":"PPLA2","adminCode":"23","population":249219,"loc":{"type":"Point","coordinates":[-53.80694,-29.68417]}},{"cityId":3450144,"name":"Santa Luzia","altName":"","country":"BR","featureCode":"PPL","adminCode":"15","population":243503,"loc":{"type":"Point","coordinates":[-43.85139,-19.76972]}},{"cityId":3450554,"name":"Salvador","altName":"","country":"BR","featureCode":"PPLA","adminCode":"05","population":2711840,"loc":{"type":"Point","coordinates":[-38.51083,-12.97111]}},{"cityId":3451055,"name":"Rio Verde","altName":"","country":"BR","featureCode":"PPL","adminCode":"29","population":229651,"loc":{"type":"Point","coordinates":[-50.92806,-17.79806]}},{"cityId":3451190,"name":"Rio de Janeiro","altName":"","country":"BR","featureCode":"PPLA","adminCode":"21","population":6023699,"loc":{"type":"Point","coordinates":[-43.18223,-22.90642]}},{"cityId":3451328,"name":"Ribeirão Preto","altName":"","country":"BR","featureCode":"PPLA2","adminCode":"27","population":619746,"loc":{"type":"Point","coordinates":[-47.81028,-21.1775]}},{"cityId":3451353,"name":"Ribeirão das Neves","altName":"","country":"BR","featureCode":"PPL","adminCode":"15","population":406802,"loc":{"type":"Point","coordinates":[-44.08667,-19.76694]}},{"cityId":3452324,"name":"Presidente Prudente","altName":"","country":"BR","featureCode":"PPL","adminCode":"27","population":209502,"loc":{"type":"Point","coordinates":[-51.38889,-22.12556]}},{"cityId":3452465,"name":"Praia Grande","altName":"","country":"BR","featureCode":"PPL","adminCode":"27","population":250027,"loc":{"type":"Point","coordinates":[-46.40278,-24.00583]}},{"cityId":3452925,"name":"Porto Alegre","altName":"","country":"BR","featureCode":"PPLA","adminCode":"23","population":1372741,"loc":{"type":"Point","coordinates":[-51.23019,-30.03283]}},{"cityId":3453186,"name":"Ponta Grossa","altName":"","country":"BR","featureCode":"PPL","adminCode":"18","population":292177,"loc":{"type":"Point","coordinates":[-50.16194,-25.095]}},{"cityId":3453643,"name":"Piracicaba","altName":"","country":"BR","featureCode":"PPLA2","adminCode":"27","population":342209,"loc":{"type":"Point","coordinates":[-47.64917,-22.72528]}},{"cityId":3454031,"name":"Petrópolis","altName":"","country":"BR","featureCode":"PPL","adminCode":"21","population":272691,"loc":{"type":"Point","coordinates":[-43.17861,-22.505]}},{"cityId":3454244,"name":"Pelotas","altName":"","country":"BR","featureCode":"PPL","adminCode":"23","population":320674,"loc":{"type":"Point","coordinates":[-52.34101,-31.76997]}},{"cityId":3455775,"name":"Osasco","altName":"","country":"BR","featureCode":"PPL","adminCode":"27","population":677856,"loc":{"type":"Point","coordinates":[-46.79167,-23.5325]}},{"cityId":3456068,"name":"Novo Hamburgo","altName":"","country":"BR","featureCode":"PPL","adminCode":"23","population":253841,"loc":{"type":"Point","coordinates":[-51.13056,-29.67833]}},{"cityId":3456160,"name":"Nova Iguaçu","altName":"","country":"BR","featureCode":"PPLA2","adminCode":"21","population":1002118,"loc":{"type":"Point","coordinates":[-43.45111,-22.75917]}},{"cityId":3456283,"name":"Niterói","altName":"","country":"BR","featureCode":"PPL","adminCode":"21","population":456456,"loc":{"type":"Point","coordinates":[-43.10361,-22.88333]}},{"cityId":3456814,"name":"Montes Claros","altName":"","country":"BR","featureCode":"PPL","adminCode":"15","population":332379,"loc":{"type":"Point","coordinates":[-43.86167,-16.735]}},{"cityId":3457001,"name":"Mogi das Cruzes","altName":"","country":"BR","featureCode":"PPL","adminCode":"27","population":325746,"loc":{"type":"Point","coordinates":[-46.18833,-23.52278]}},{"cityId":3457381,"name":"Mauá","altName":"","country":"BR","featureCode":"PPLA2","adminCode":"27","population":386069,"loc":{"type":"Point","coordinates":[-46.46139,-23.66778]}},{"cityId":3457671,"name":"Maringá","altName":"","country":"BR","featureCode":"PPLA2","adminCode":"18","population":311724,"loc":{"type":"Point","coordinates":[-51.93861,-23.42528]}},{"cityId":3457692,"name":"Marília","altName":"","country":"BR","featureCode":"PPLA2","adminCode":"27","population":212218,"loc":{"type":"Point","coordinates":[-49.94583,-22.21389]}},{"cityId":3458449,"name":"Londrina","altName":"","country":"BR","featureCode":"PPLA2","adminCode":"18","population":471832,"loc":{"type":"Point","coordinates":[-51.16278,-23.31028]}},{"cityId":3458575,"name":"Limeira","altName":"","country":"BR","featureCode":"PPL","adminCode":"27","population":289665,"loc":{"type":"Point","coordinates":[-47.40167,-22.56472]}},{"cityId":3459462,"name":"Jundiaí","altName":"","country":"BR","featureCode":"PPLA2","adminCode":"27","population":321589,"loc":{"type":"Point","coordinates":[-46.88417,-23.18639]}},{"cityId":3459505,"name":"Juiz de Fora","altName":"","country":"BR","featureCode":"PPLA2","adminCode":"15","population":470193,"loc":{"type":"Point","coordinates":[-43.35028,-21.76417]}},{"cityId":3459712,"name":"Joinville","altName":"","country":"BR","featureCode":"PPL","adminCode":"26","population":461304,"loc":{"type":"Point","coordinates":[-48.84556,-26.30444]}},{"cityId":3460370,"name":"Jacareí","altName":"","country":"BR","featureCode":"PPL","adminCode":"27","population":213110,"loc":{"type":"Point","coordinates":[-45.96583,-23.30528]}},{"cityId":3460644,"name":"Itaquaquecetuba","altName":"","country":"BR","featureCode":"PPL","adminCode":"27","population":336679,"loc":{"type":"Point","coordinates":[-46.34833,-23.48611]}},{"cityId":3460718,"name":"Itapevi","altName":"","country":"BR","featureCode":"PPLA2","adminCode":"27","population":201748,"loc":{"type":"Point","coordinates":[-46.93417,-23.54889]}},{"cityId":3460949,"name":"Itabuna","altName":"","country":"BR","featureCode":"PPL","adminCode":"05","population":205660,"loc":{"type":"Point","coordinates":[-39.28028,-14.78556]}},{"cityId":3461144,"name":"Ipatinga","altName":"","country":"BR","featureCode":"PPL","adminCode":"15","population":228746,"loc":{"type":"Point","coordinates":[-42.53667,-19.46833]}},{"cityId":3461655,"name":"Hortolândia","altName":"","country":"BR","featureCode":"PPLA2","adminCode":"27","population":203533,"loc":{"type":"Point","coordinates":[-47.22,-22.85833]}},{"cityId":3461786,"name":"Guarulhos","altName":"","country":"BR","featureCode":"PPL","adminCode":"27","population":1169577,"loc":{"type":"Point","coordinates":[-46.53333,-23.46278]}},{"cityId":3461789,"name":"Guarujá","altName":"","country":"BR","featureCode":"PPLA2","adminCode":"27","population":310424,"loc":{"type":"Point","coordinates":[-46.25639,-23.99306]}},{"cityId":3462089,"name":"Gravataí","altName":"","country":"BR","featureCode":"PPLA2","adminCode":"23","population":238778,"loc":{"type":"Point","coordinates":[-50.99278,-29.94218]}},{"cityId":3462315,"name":"Governador Valadares","altName":"","country":"BR","featureCode":"PPL","adminCode":"15","population":250878,"loc":{"type":"Point","coordinates":[-41.94944,-18.85111]}},{"cityId":3462377,"name":"Goiânia","altName":"","country":"BR","featureCode":"PPLA","adminCode":"29","population":1171195,"loc":{"type":"Point","coordinates":[-49.25389,-16.67861]}},{"cityId":3463011,"name":"Franca","altName":"","country":"BR","featureCode":"PPLA2","adminCode":"27","population":305041,"loc":{"type":"Point","coordinates":[-47.40083,-20.53861]}},{"cityId":3463030,"name":"Foz do Iguaçu","altName":"","country":"BR","featureCode":"PPLA2","adminCode":"18","population":293523,"loc":{"type":"Point","coordinates":[-54.58806,-25.54778]}},{"cityId":3463237,"name":"Florianópolis","altName":"","country":"BR","featureCode":"PPLA","adminCode":"26","population":412724,"loc":{"type":"Point","coordinates":[-48.54917,-27.59667]}},{"cityId":3463478,"name":"Feira de Santana","altName":"","country":"BR","featureCode":"PPL","adminCode":"05","population":481911,"loc":{"type":"Point","coordinates":[-38.96667,-12.26667]}},{"cityId":3464305,"name":"Embu","altName":"","country":"BR","featureCode":"PPL","adminCode":"27","population":221733,"loc":{"type":"Point","coordinates":[-46.85222,-23.64889]}},{"cityId":3464374,"name":"Duque de Caxias","altName":"","country":"BR","featureCode":"PPL","adminCode":"21","population":818329,"loc":{"type":"Point","coordinates":[-43.31167,-22.78556]}},{"cityId":3464739,"name":"Diadema","altName":"","country":"BR","featureCode":"PPL","adminCode":"27","population":390633,"loc":{"type":"Point","coordinates":[-46.62278,-23.68611]}},{"cityId":3464975,"name":"Curitiba","altName":"","country":"BR","featureCode":"PPLA","adminCode":"18","population":1718421,"loc":{"type":"Point","coordinates":[-49.27306,-25.42778]}},{"cityId":3465038,"name":"Cuiabá","altName":"","country":"BR","featureCode":"PPLA","adminCode":"14","population":521934,"loc":{"type":"Point","coordinates":[-56.09667,-15.59611]}},{"cityId":3465624,"name":"Contagem","altName":"","country":"BR","featureCode":"PPL","adminCode":"15","population":627123,"loc":{"type":"Point","coordinates":[-44.05361,-19.93167]}},{"cityId":3465927,"name":"Colombo","altName":"","country":"BR","featureCode":"PPLA2","adminCode":"18","population":217000,"loc":{"type":"Point","coordinates":[-49.22417,-25.29167]}},{"cityId":3466537,"name":"Caxias do Sul","altName":"","country":"BR","featureCode":"PPL","adminCode":"23","population":381270,"loc":{"type":"Point","coordinates":[-51.17944,-29.16806]}},{"cityId":3466779,"name":"Cascavel","altName":"","country":"BR","featureCode":"PPL","adminCode":"18","population":257172,"loc":{"type":"Point","coordinates":[-53.45528,-24.95583]}},{"cityId":3466998,"name":"Carapicuíba","altName":"","country":"BR","featureCode":"PPLA2","adminCode":"27","population":361112,"loc":{"type":"Point","coordinates":[-46.835,-23.52272]}},{"cityId":3467467,"name":"Canoas","altName":"","country":"BR","featureCode":"PPL","adminCode":"23","population":328291,"loc":{"type":"Point","coordinates":[-51.18361,-29.91778]}},{"cityId":3467693,"name":"Campos dos Goytacazes","altName":"","country":"BR","featureCode":"PPLA2","adminCode":"21","population":387417,"loc":{"type":"Point","coordinates":[-41.33044,-21.75227]}},{"cityId":3467747,"name":"Campo Grande","altName":"","country":"BR","featureCode":"PPLA","adminCode":"11","population":729151,"loc":{"type":"Point","coordinates":[-54.64639,-20.44278]}},{"cityId":3467865,"name":"Campinas","altName":"","country":"BR","featureCode":"PPL","adminCode":"27","population":1031554,"loc":{"type":"Point","coordinates":[-47.06083,-22.90556]}},{"cityId":3469058,"name":"Brasília","altName":"","country":"BR","featureCode":"PPLC","adminCode":"07","population":2207718,"loc":{"type":"Point","coordinates":[-47.92972,-15.77972]}},{"cityId":3469968,"name":"Blumenau","altName":"","country":"BR","featureCode":"PPLA2","adminCode":"26","population":293949,"loc":{"type":"Point","coordinates":[-49.06611,-26.91944]}},{"cityId":3470044,"name":"Betim","altName":"","country":"BR","featureCode":"PPL","adminCode":"15","population":384000,"loc":{"type":"Point","coordinates":[-44.19833,-19.96778]}},{"cityId":3470127,"name":"Belo Horizonte","altName":"","country":"BR","featureCode":"PPLA","adminCode":"15","population":2373224,"loc":{"type":"Point","coordinates":[-43.93778,-19.92083]}},{"cityId":3470142,"name":"Belford Roxo","altName":"","country":"BR","featureCode":"PPL","adminCode":"21","population":466096,"loc":{"type":"Point","coordinates":[-43.39944,-22.76417]}},{"cityId":3470279,"name":"Bauru","altName":"","country":"BR","featureCode":"PPLA2","adminCode":"27","population":335024,"loc":{"type":"Point","coordinates":[-49.06056,-22.31472]}},{"cityId":3470353,"name":"Barueri","altName":"","country":"BR","featureCode":"PPL","adminCode":"27","population":251994,"loc":{"type":"Point","coordinates":[-46.87611,-23.51056]}},{"cityId":3471872,"name":"Aracaju","altName":"","country":"BR","featureCode":"PPLA","adminCode":"28","population":490175,"loc":{"type":"Point","coordinates":[-37.07167,-10.91111]}},{"cityId":3472287,"name":"Anápolis","altName":"","country":"BR","featureCode":"PPL","adminCode":"29","population":319587,"loc":{"type":"Point","coordinates":[-48.95278,-16.32667]}},{"cityId":3662574,"name":"Rio Branco","altName":"","country":"BR","featureCode":"PPLA","adminCode":"01","population":257642,"loc":{"type":"Point","coordinates":[-67.81,-9.97472]}},{"cityId":3662762,"name":"Porto Velho","altName":"","country":"BR","featureCode":"PPLA","adminCode":"24","population":306180,"loc":{"type":"Point","coordinates":[-63.90389,-8.76194]}},{"cityId":3663517,"name":"Manaus","altName":"","country":"BR","featureCode":"PPLA","adminCode":"04","population":1598210,"loc":{"type":"Point","coordinates":[-60.025,-3.10194]}},{"cityId":3664980,"name":"Boa Vista","altName":"","country":"BR","featureCode":"PPLA","adminCode":"25","population":235150,"loc":{"type":"Point","coordinates":[-60.67333,2.81972]}},{"cityId":6316406,"name":"Aparecida de Goiânia","altName":"","country":"BR","featureCode":"PPL","adminCode":"29","population":510770,"loc":{"type":"Point","coordinates":[-49.24389,-16.82333]}},{"cityId":6317344,"name":"Jaboatão dos Guararapes","altName":"","country":"BR","featureCode":"PPLA2","adminCode":"30","population":630008,"loc":{"type":"Point","coordinates":[-35.01472,-8.11278]}},{"cityId":3571824,"name":"Nassau","altName":"","country":"BS","featureCode":"PPLC","adminCode":"23","population":227940,"loc":{"type":"Point","coordinates":[-77.34306,25.05823]}},{"cityId":933773,"name":"Gaborone","altName":"","country":"BW","featureCode":"PPLC","adminCode":"14","population":208411,"loc":{"type":"Point","coordinates":[25.90859,-24.65451]}},{"cityId":620127,"name":"Vitebsk","altName":"","country":"BY","featureCode":"PPLA","adminCode":"07","population":342700,"loc":{"type":"Point","coordinates":[30.2049,55.1904]}},{"cityId":625144,"name":"Minsk","altName":"","country":"BY","featureCode":"PPLC","adminCode":"04","population":1742124,"loc":{"type":"Point","coordinates":[27.56667,53.9]}},{"cityId":625665,"name":"Mahilyow","altName":"","country":"BY","featureCode":"PPLA","adminCode":"06","population":369200,"loc":{"type":"Point","coordinates":[30.3449,53.9168]}},{"cityId":627904,"name":"Hrodna","altName":"","country":"BY","featureCode":"PPLA","adminCode":"03","population":317365,"loc":{"type":"Point","coordinates":[23.8258,53.6884]}},{"cityId":627907,"name":"Homyel'","altName":"","country":"BY","featureCode":"PPLA","adminCode":"02","population":480951,"loc":{"type":"Point","coordinates":[30.9754,52.4345]}},{"cityId":629634,"name":"Brest","altName":"","country":"BY","featureCode":"PPLA","adminCode":"01","population":300715,"loc":{"type":"Point","coordinates":[23.68775,52.09755]}},{"cityId":630468,"name":"Babruysk","altName":"","country":"BY","featureCode":"PPLA2","adminCode":"06","population":220517,"loc":{"type":"Point","coordinates":[29.2214,53.1384]}},{"cityId":5907364,"name":"Brampton","altName":"","country":"CA","featureCode":"PPL","adminCode":"08","population":433806,"loc":{"type":"Point","coordinates":[-79.76633,43.68341]}},{"cityId":5911606,"name":"Burnaby","altName":"","country":"CA","featureCode":"PPLA3","adminCode":"02","population":202799,"loc":{"type":"Point","coordinates":[-122.95263,49.26636]},"muni":"5915025"},{"cityId":5913490,"name":"Calgary","altName":"","country":"CA","featureCode":"PPL","adminCode":"01","population":1019942,"loc":{"type":"Point","coordinates":[-114.08529,51.05011]}},{"cityId":5946768,"name":"Edmonton","altName":"","country":"CA","featureCode":"PPLA","adminCode":"01","population":712391,"loc":{"type":"Point","coordinates":[-113.46871,53.55014]}},{"cityId":5950267,"name":"Etobicoke","altName":"","country":"CA","featureCode":"PPL","adminCode":"08","population":347948,"loc":{"type":"Point","coordinates":[-79.56711,43.65421]}},{"cityId":5959974,"name":"Gatineau","altName":"","country":"CA","featureCode":"PPL","adminCode":"10","population":242124,"loc":{"type":"Point","coordinates":[-75.70164,45.47723]},"muni":"81017"},{"cityId":5969782,"name":"Hamilton","altName":"","country":"CA","featureCode":"PPL","adminCode":"08","population":519949,"loc":{"type":"Point","coordinates":[-79.84963,43.25011]}},{"cityId":5992996,"name":"Kitchener","altName":"","country":"CA","featureCode":"PPLA2","adminCode":"08","population":233700,"loc":{"type":"Point","coordinates":[-80.5112,43.42537]}},{"cityId":6050610,"name":"Laval","altName":"","country":"CA","featureCode":"PPL","adminCode":"10","population":376845,"loc":{"type":"Point","coordinates":[-73.692,45.56995]},"muni":"65005"},{"cityId":6058560,"name":"London","altName":"","country":"CA","featureCode":"PPL","adminCode":"08","population":346765,"loc":{"type":"Point","coordinates":[-81.23304,42.98339]}},{"cityId":6059891,"name":"Longueuil","altName":"","country":"CA","featureCode":"PPL","adminCode":"10","population":229330,"loc":{"type":"Point","coordinates":[-73.51806,45.53121]},"muni":"58227"},{"cityId":6066513,"name":"Markham","altName":"","country":"CA","featureCode":"PPL","adminCode":"08","population":261573,"loc":{"type":"Point","coordinates":[-79.2663,43.86682]}},{"cityId":6075357,"name":"Mississauga","altName":"","country":"CA","featureCode":"PPL","adminCode":"08","population":668549,"loc":{"type":"Point","coordinates":[-79.6583,43.5789]}},{"cityId":6077243,"name":"Montréal","altName":"","country":"CA","featureCode":"PPLA2","adminCode":"10","population":1600000,"loc":{"type":"Point","coordinates":[-73.58781,45.50884]},"muni":"66023"},{"cityId":6091104,"name":"North York","altName":"","country":"CA","featureCode":"PPL","adminCode":"08","population":636000,"loc":{"type":"Point","coordinates":[-79.4163,43.76681]}},{"cityId":6094578,"name":"Oshawa","altName":"","country":"CA","featureCode":"PPL","adminCode":"08","population":308875,"loc":{"type":"Point","coordinates":[-78.84957,43.90012]}},{"cityId":6094817,"name":"Ottawa","altName":"","country":"CA","featureCode":"PPLC","adminCode":"08","population":812129,"loc":{"type":"Point","coordinates":[-75.69812,45.41117]},"muni":"3506008"},{"cityId":6159905,"name":"Surrey","altName":"","country":"CA","featureCode":"PPL","adminCode":"02","population":394976,"loc":{"type":"Point","coordinates":[-122.82509,49.10635]},"muni":"5915004"},{"cityId":6167865,"name":"Toronto","altName":"","country":"CA","featureCode":"PPLA","adminCode":"08","population":2600000,"loc":{"type":"Point","coordinates":[-79.4163,43.70011]}},{"cityId":6173331,"name":"Vancouver","altName":"","country":"CA","featureCode":"PPL","adminCode":"02","population":600000,"loc":{"type":"Point","coordinates":[-123.11934,49.24966]}},{"cityId":6173577,"name":"Vaughan","altName":"","country":"CA","featureCode":"PPL","adminCode":"08","population":238866,"loc":{"type":"Point","coordinates":[-79.49827,43.8361]}},{"cityId":6174041,"name":"Victoria","altName":"","country":"CA","featureCode":"PPLA","adminCode":"02","population":289625,"loc":{"type":"Point","coordinates":[-123.35155,48.4359]}},{"cityId":6182962,"name":"Windsor","altName":"","country":"CA","featureCode":"PPL","adminCode":"08","population":278013,"loc":{"type":"Point","coordinates":[-83.01654,42.30008]}},{"cityId":6183235,"name":"Winnipeg","altName":"","country":"CA","featureCode":"PPLA","adminCode":"03","population":632063,"loc":{"type":"Point","coordinates":[-97.14704,49.8844]}},{"cityId":6324729,"name":"Halifax","altName":"","country":"CA","featureCode":"PPLA","adminCode":"07","population":359111,"loc":{"type":"Point","coordinates":[-63.57291,44.6464]}},{"cityId":6325494,"name":"Québec","altName":"","country":"CA","featureCode":"PPLA","adminCode":"10","population":528595,"loc":{"type":"Point","coordinates":[-71.21454,46.81228]},"muni":"23027"},{"cityId":6948711,"name":"Scarborough","altName":"","country":"CA","featureCode":"PPL","adminCode":"08","population":600000,"loc":{"type":"Point","coordinates":[-79.25666,43.77223]}},{"cityId":7281931,"name":"Okanagan","altName":"","country":"CA","featureCode":"PPLQ","adminCode":"02","population":297601,"loc":{"type":"Point","coordinates":[-119.34997,50.36386]}},{"cityId":7602078,"name":"Ladner","altName":"","country":"CA","featureCode":"PPL","adminCode":"02","population":200000,"loc":{"type":"Point","coordinates":[-123.08241,49.08938]},"muni":"5915011"},{"cityId":204953,"name":"Tshikapa","altName":"","country":"CD","featureCode":"PPLA2","adminCode":"18","population":267462,"loc":{"type":"Point","coordinates":[20.79995,-6.41621]}},{"cityId":209228,"name":"Mbuji-Mayi","altName":"","country":"CD","featureCode":"PPLA","adminCode":"04","population":874761,"loc":{"type":"Point","coordinates":[23.58979,-6.13603]}},{"cityId":212730,"name":"Kisangani","altName":"","country":"CD","featureCode":"PPLA","adminCode":"30","population":539158,"loc":{"type":"Point","coordinates":[25.19099,0.51528]}},{"cityId":214481,"name":"Kananga","altName":"","country":"CD","featureCode":"PPLA","adminCode":"23","population":463546,"loc":{"type":"Point","coordinates":[22.41659,-5.89624]}},{"cityId":217831,"name":"Bukavu","altName":"","country":"CD","featureCode":"PPLA","adminCode":"12","population":225389,"loc":{"type":"Point","coordinates":[28.84281,-2.49077]}},{"cityId":219057,"name":"Beni","altName":"","country":"CD","featureCode":"PPL","adminCode":"11","population":232000,"loc":{"type":"Point","coordinates":[29.47306,0.49113]}},{"cityId":922704,"name":"Lubumbashi","altName":"","country":"CD","featureCode":"PPLA","adminCode":"14","population":1373770,"loc":{"type":"Point","coordinates":[27.47938,-11.66089]}},{"cityId":922741,"name":"Likasi","altName":"","country":"CD","featureCode":"PPL","adminCode":"14","population":422414,"loc":{"type":"Point","coordinates":[26.7384,-10.98303]}},{"cityId":922773,"name":"Kolwezi","altName":"","country":"CD","featureCode":"PPLA2","adminCode":"22","population":418000,"loc":{"type":"Point","coordinates":[25.46674,-10.71484]}},{"cityId":2314302,"name":"Kinshasa","altName":"","country":"CD","featureCode":"PPLC","adminCode":"06","population":7785965,"loc":{"type":"Point","coordinates":[15.31357,-4.32758]}},{"cityId":2593460,"name":"Masina","altName":"","country":"CD","featureCode":"PPL","adminCode":"06","population":485167,"loc":{"type":"Point","coordinates":[15.39139,-4.38361]}},{"cityId":2389853,"name":"Bangui","altName":"","country":"CF","featureCode":"PPLC","adminCode":"18","population":542393,"loc":{"type":"Point","coordinates":[18.55496,4.36122]}},{"cityId":2255414,"name":"Pointe-Noire","altName":"","country":"CG","featureCode":"PPLA","adminCode":"15","population":659084,"loc":{"type":"Point","coordinates":[11.86352,-4.77609]}},{"cityId":2260535,"name":"Brazzaville","altName":"","country":"CG","featureCode":"PPLC","adminCode":"12","population":1284609,"loc":{"type":"Point","coordinates":[15.28318,-4.26613]}},{"cityId":2657896,"name":"Zürich","altName":"","country":"CH","featureCode":"PPLA","adminCode":"ZH","population":341730,"loc":{"type":"Point","coordinates":[8.55,47.36667]},"muni":"261"},{"cityId":2290486,"name":"Daloa","altName":"","country":"CI","featureCode":"PPLA","adminCode":"96","population":215652,"loc":{"type":"Point","coordinates":[-6.45022,6.87735]}},{"cityId":2290956,"name":"Bouaké","altName":"","country":"CI","featureCode":"PPLA","adminCode":"90","population":567481,"loc":{"type":"Point","coordinates":[-5.03031,7.69385]}},{"cityId":2293521,"name":"Abobo","altName":"","country":"CI","featureCode":"PPL","adminCode":"93","population":900000,"loc":{"type":"Point","coordinates":[-4.0159,5.41613]}},{"cityId":2293538,"name":"Abidjan","altName":"","country":"CI","featureCode":"PPLA","adminCode":"93","population":3677115,"loc":{"type":"Point","coordinates":[-4.00167,5.35444]}},{"cityId":3868121,"name":"Viña del Mar","altName":"","country":"CL","featureCode":"PPL","adminCode":"01","population":294551,"loc":{"type":"Point","coordinates":[-71.55183,-33.02457]},"muni":"05109"},{"cityId":3868626,"name":"Valparaíso","altName":"","country":"CL","featureCode":"PPLA","adminCode":"01","population":282448,"loc":{"type":"Point","coordinates":[-71.62963,-33.036]},"muni":"05101"},{"cityId":3870011,"name":"Temuco","altName":"","country":"CL","featureCode":"PPLA","adminCode":"04","population":238129,"loc":{"type":"Point","coordinates":[-72.59842,-38.73965]},"muni":"09101"},{"cityId":3870282,"name":"Talcahuano","altName":"","country":"CL","featureCode":"PPL","adminCode":"06","population":252968,"loc":{"type":"Point","coordinates":[-73.11684,-36.72494]},"muni":"08110"},{"cityId":3871336,"name":"Santiago","altName":"","country":"CL","featureCode":"PPLC","adminCode":"12","population":4837295,"loc":{"type":"Point","coordinates":[-70.64827,-33.45694]},"muni":"13101"},{"cityId":3872348,"name":"San Bernardo","altName":"","country":"CL","featureCode":"PPLA2","adminCode":"12","population":249858,"loc":{"type":"Point","coordinates":[-70.6996,-33.59217]},"muni":"13401"},{"cityId":3873775,"name":"Rancagua","altName":"","country":"CL","featureCode":"PPLA","adminCode":"08","population":212695,"loc":{"type":"Point","coordinates":[-70.74444,-34.17083]},"muni":"06101"},{"cityId":3875024,"name":"Puente Alto","altName":"","country":"CL","featureCode":"PPLA2","adminCode":"12","population":510417,"loc":{"type":"Point","coordinates":[-70.57577,-33.61169]},"muni":"13201"},{"cityId":3887127,"name":"Iquique","altName":"","country":"CL","featureCode":"PPLA","adminCode":"15","population":227499,"loc":{"type":"Point","coordinates":[-70.15027,-20.21326]},"muni":"01101"},{"cityId":3893894,"name":"Concepción","altName":"","country":"CL","featureCode":"PPLA","adminCode":"06","population":215413,"loc":{"type":"Point","coordinates":[-73.04977,-36.82699]},"muni":"08101"},{"cityId":3899539,"name":"Antofagasta","altName":"","country":"CL","featureCode":"PPLA","adminCode":"03","population":309832,"loc":{"type":"Point","coordinates":[-70.3954,-23.65236]},"muni":"02101"},{"cityId":7281017,"name":"La Pintana","altName":"","country":"CL","featureCode":"PPL","adminCode":"12","population":201178,"loc":{"type":"Point","coordinates":[-70.63419,-33.58331]},"muni":"13112"},{"cityId":2220957,"name":"Yaoundé","altName":"","country":"CM","featureCode":"PPLC","adminCode":"11","population":1299369,"loc":{"type":"Point","coordinates":[11.51667,3.86667]}},{"cityId":2224827,"name":"Ngaoundéré","altName":"","country":"CM","featureCode":"PPLA","adminCode":"10","population":231357,"loc":{"type":"Point","coordinates":[13.58472,7.32765]}},{"cityId":2226275,"name":"Mokolo","altName":"","country":"CM","featureCode":"PPL","adminCode":"12","population":275239,"loc":{"type":"Point","coordinates":[13.80227,10.74244]}},{"cityId":2228373,"name":"Maroua","altName":"","country":"CM","featureCode":"PPLA","adminCode":"12","population":319941,"loc":{"type":"Point","coordinates":[14.31593,10.59095]}},{"cityId":2229798,"name":"Kousséri","altName":"","country":"CM","featureCode":"PPL","adminCode":"12","population":435547,"loc":{"type":"Point","coordinates":[15.03063,12.07689]}},{"cityId":2231320,"name":"Garoua","altName":"","country":"CM","featureCode":"PPLA","adminCode":"13","population":436899,"loc":{"type":"Point","coordinates":[13.39771,9.30143]}},{"cityId":2232239,"name":"Edéa","altName":"","country":"CM","featureCode":"PPL","adminCode":"05","population":203149,"loc":{"type":"Point","coordinates":[10.13333,3.8]}},{"cityId":2232593,"name":"Douala","altName":"","country":"CM","featureCode":"PPLA","adminCode":"05","population":1338082,"loc":{"type":"Point","coordinates":[9.70428,4.04827]}},{"cityId":2234359,"name":"Bertoua","altName":"","country":"CM","featureCode":"PPLA","adminCode":"04","population":218111,"loc":{"type":"Point","coordinates":[13.68459,4.57728]}},{"cityId":2234974,"name":"Bamenda","altName":"","country":"CM","featureCode":"PPLA","adminCode":"07","population":393835,"loc":{"type":"Point","coordinates":[10.14597,5.9597]}},{"cityId":2235189,"name":"Bafoussam","altName":"","country":"CM","featureCode":"PPLA","adminCode":"08","population":290768,"loc":{"type":"Point","coordinates":[10.41759,5.47775]}},{"cityId":1280849,"name":"Kashgar","altName":"","country":"CN","featureCode":"PPLA2","adminCode":"13","population":274717,"loc":{"type":"Point","coordinates":[75.98951,39.47066]}},{"cityId":1529046,"name":"Xinyuan","altName":"","country":"CN","featureCode":"PPL","adminCode":"13","population":300000,"loc":{"type":"Point","coordinates":[83.24959,43.42649]}},{"cityId":1529102,"name":"Ürümqi","altName":"","country":"CN","featureCode":"PPLA","adminCode":"13","population":3029372,"loc":{"type":"Point","coordinates":[87.60046,43.80096]}},{"cityId":1529114,"name":"Turpan","altName":"","country":"CN","featureCode":"PPLA3","adminCode":"13","population":254900,"loc":{"type":"Point","coordinates":[89.17886,42.94769]}},{"cityId":1529195,"name":"Shihezi","altName":"","country":"CN","featureCode":"PPLA3","adminCode":"13","population":572772,"loc":{"type":"Point","coordinates":[86.03694,44.3023]}},{"cityId":1529401,"name":"Karamay","altName":"","country":"CN","featureCode":"PPL","adminCode":"13","population":260000,"loc":{"type":"Point","coordinates":[84.88724,45.58473]}},{"cityId":1529641,"name":"Aral","altName":"","country":"CN","featureCode":"PPLA3","adminCode":"13","population":260000,"loc":{"type":"Point","coordinates":[81.26566,40.54184]}},{"cityId":1529660,"name":"Aksu","altName":"","country":"CN","featureCode":"PPLA2","adminCode":"13","population":340020,"loc":{"type":"Point","coordinates":[80.27921,41.18418]}},{"cityId":1783621,"name":"Zunyi","altName":"","country":"CN","featureCode":"PPL","adminCode":"18","population":466292,"loc":{"type":"Point","coordinates":[106.90722,27.68667]}},{"cityId":1783745,"name":"Zigong","altName":"","country":"CN","featureCode":"PPL","adminCode":"32","population":689961,"loc":{"type":"Point","coordinates":[104.77689,29.34162]}},{"cityId":1783763,"name":"Zhuzhou","altName":"","country":"CN","featureCode":"PPLA2","adminCode":"11","population":709358,"loc":{"type":"Point","coordinates":[113.15,27.83333]}},{"cityId":1783873,"name":"Zhumadian","altName":"","country":"CN","featureCode":"PPL","adminCode":"09","population":720000,"loc":{"type":"Point","coordinates":[114.02944,32.97944]}},{"cityId":1784130,"name":"Zhoukou","altName":"","country":"CN","featureCode":"PPLA2","adminCode":"09","population":377061,"loc":{"type":"Point","coordinates":[114.63333,33.63333]}},{"cityId":1784642,"name":"Zhenjiang","altName":"","country":"CN","featureCode":"PPLA2","adminCode":"04","population":632552,"loc":{"type":"Point","coordinates":[119.45508,32.21086]}},{"cityId":1784658,"name":"Zhengzhou","altName":"","country":"CN","featureCode":"PPLA","adminCode":"09","population":4253913,"loc":{"type":"Point","coordinates":[113.64861,34.75778]}},{"cityId":1784853,"name":"Zhaoqing","altName":"","country":"CN","featureCode":"PPLA2","adminCode":"30","population":361969,"loc":{"type":"Point","coordinates":[112.46091,23.04893]}},{"cityId":1784990,"name":"Zhanjiang","altName":"","country":"CN","featureCode":"PPLA2","adminCode":"30","population":637790,"loc":{"type":"Point","coordinates":[110.34271,21.28145]}},{"cityId":1785018,"name":"Zhangzhou","altName":"","country":"CN","featureCode":"PPLA2","adminCode":"07","population":589831,"loc":{"type":"Point","coordinates":[117.65556,24.51333]}},{"cityId":1785286,"name":"Zibo","altName":"","country":"CN","featureCode":"PPL","adminCode":"25","population":3129228,"loc":{"type":"Point","coordinates":[118.06333,36.79056]}},{"cityId":1785294,"name":"Anyang","altName":"","country":"CN","featureCode":"PPLA2","adminCode":"09","population":781129,"loc":{"type":"Point","coordinates":[114.38278,36.096]}},{"cityId":1785412,"name":"Zhabei","altName":"","country":"CN","featureCode":"PPLX","adminCode":"23","population":840000,"loc":{"type":"Point","coordinates":[121.45972,31.25861]}},{"cityId":1785623,"name":"Kunshan","altName":"","country":"CN","featureCode":"PPLA3","adminCode":"04","population":1600000,"loc":{"type":"Point","coordinates":[120.95431,31.37762]}},{"cityId":1785725,"name":"Yunfu","altName":"","country":"CN","featureCode":"PPLA2","adminCode":"30","population":2612800,"loc":{"type":"Point","coordinates":[112.03954,22.92833]}},{"cityId":1785738,"name":"Yuncheng","altName":"","country":"CN","featureCode":"PPL","adminCode":"24","population":201950,"loc":{"type":"Point","coordinates":[110.99278,35.02306]}},{"cityId":1785974,"name":"Yuci","altName":"","country":"CN","featureCode":"PPL","adminCode":"24","population":235929,"loc":{"type":"Point","coordinates":[112.73194,37.68028]}},{"cityId":1786640,"name":"Chengzhong","altName":"","country":"CN","featureCode":"PPLA4","adminCode":"12","population":265886,"loc":{"type":"Point","coordinates":[113.55284,30.94454]}},{"cityId":1786657,"name":"Yinchuan","altName":"","country":"CN","featureCode":"PPLA","adminCode":"21","population":475101,"loc":{"type":"Point","coordinates":[106.27306,38.46806]}},{"cityId":1786764,"name":"Yichang","altName":"","country":"CN","featureCode":"PPL","adminCode":"12","population":476725,"loc":{"type":"Point","coordinates":[111.28472,30.71444]}},{"cityId":1786770,"name":"Yibin","altName":"","country":"CN","featureCode":"PPLA3","adminCode":"32","population":242111,"loc":{"type":"Point","coordinates":[104.63994,28.7593]},"muni":"1786767"},{"cityId":1787093,"name":"Yantai","altName":"","country":"CN","featureCode":"PPL","adminCode":"25","population":719332,"loc":{"type":"Point","coordinates":[121.44081,37.47649]}},{"cityId":1787227,"name":"Yangzhou","altName":"","country":"CN","featureCode":"PPL","adminCode":"04","population":539715,"loc":{"type":"Point","coordinates":[119.43583,32.39722]}},{"cityId":1787323,"name":"Yangshuo","altName":"","country":"CN","featureCode":"PPLS","adminCode":"16","population":300000,"loc":{"type":"Point","coordinates":[110.48967,24.78081]}},{"cityId":1787351,"name":"Yangquan","altName":"","country":"CN","featureCode":"PPLA2","adminCode":"24","population":413394,"loc":{"type":"Point","coordinates":[113.56333,37.8575]}},{"cityId":1787746,"name":"Yancheng","altName":"","country":"CN","featureCode":"PPLA2","adminCode":"04","population":628441,"loc":{"type":"Point","coordinates":[120.1573,33.3575]}},{"cityId":1787824,"name":"Tongshan","altName":"","country":"CN","featureCode":"PPLA3","adminCode":"04","population":1199193,"loc":{"type":"Point","coordinates":[117.15707,34.18045]}},{"cityId":1787858,"name":"Shangrao","altName":"","country":"CN","featureCode":"PPLA2","adminCode":"03","population":318769,"loc":{"type":"Point","coordinates":[117.94287,28.45179]}},{"cityId":1788046,"name":"Xuchang","altName":"","country":"CN","featureCode":"PPLA2","adminCode":"09","population":1265536,"loc":{"type":"Point","coordinates":[113.86299,34.03189]},"muni":"1788044"},{"cityId":1788245,"name":"Xiuying","altName":"","country":"CN","featureCode":"PPL","adminCode":"31","population":290000,"loc":{"type":"Point","coordinates":[110.29359,20.00073]}},{"cityId":1788534,"name":"Xinyang","altName":"","country":"CN","featureCode":"PPL","adminCode":"09","population":1590668,"loc":{"type":"Point","coordinates":[114.06556,32.12278]}},{"cityId":1788572,"name":"Xinxiang","altName":"","country":"CN","featureCode":"PPLA2","adminCode":"09","population":743601,"loc":{"type":"Point","coordinates":[113.80151,35.19033]}},{"cityId":1788618,"name":"Xintai","altName":"","country":"CN","featureCode":"PPL","adminCode":"25","population":222459,"loc":{"type":"Point","coordinates":[117.75194,35.90056]}},{"cityId":1788694,"name":"Xinpu","altName":"","country":"CN","featureCode":"PPLA3","adminCode":"04","population":392444,"loc":{"type":"Point","coordinates":[119.15944,34.59972]}},{"cityId":1788852,"name":"Xining","altName":"","country":"CN","featureCode":"PPLA","adminCode":"06","population":767531,"loc":{"type":"Point","coordinates":[101.75739,36.62554]}},{"cityId":1788927,"name":"Xingtai","altName":"","country":"CN","featureCode":"PPL","adminCode":"10","population":611739,"loc":{"type":"Point","coordinates":[114.49417,37.06306]}},{"cityId":1790353,"name":"Xianyang","altName":"","country":"CN","featureCode":"PPLA3","adminCode":"26","population":1034081,"loc":{"type":"Point","coordinates":[108.70261,34.33778]}},{"cityId":1790371,"name":"Xiantao","altName":"","country":"CN","featureCode":"PPL","adminCode":"12","population":239406,"loc":{"type":"Point","coordinates":[113.44294,30.3708]}},{"cityId":1790437,"name":"Zhuhai","altName":"","country":"CN","featureCode":"PPLA2","adminCode":"30","population":501199,"loc":{"type":"Point","coordinates":[113.56778,22.27694]}},{"cityId":1790492,"name":"Xiangtan","altName":"","country":"CN","featureCode":"PPL","adminCode":"11","population":674189,"loc":{"type":"Point","coordinates":[112.9,27.85]}},{"cityId":1790587,"name":"Xiangyang","altName":"","country":"CN","featureCode":"PPLA2","adminCode":"12","population":462956,"loc":{"type":"Point","coordinates":[112.14479,32.0422]}},{"cityId":1790630,"name":"Xi’an","altName":"","country":"CN","featureCode":"PPLA","adminCode":"26","population":6501190,"loc":{"type":"Point","coordinates":[108.92861,34.25833]}},{"cityId":1790645,"name":"Xiamen","altName":"","country":"CN","featureCode":"PPLA2","adminCode":"07","population":3531347,"loc":{"type":"Point","coordinates":[118.08187,24.47979]}},{"cityId":1790840,"name":"Wuzhou","altName":"","country":"CN","featureCode":"PPLA2","adminCode":"16","population":265846,"loc":{"type":"Point","coordinates":[111.31667,23.48333]}},{"cityId":1790894,"name":"Wuxue","altName":"","country":"CN","featureCode":"PPLA3","adminCode":"12","population":220661,"loc":{"type":"Point","coordinates":[115.5525,29.85058]}},{"cityId":1790923,"name":"Wuxi","altName":"","country":"CN","featureCode":"PPLA2","adminCode":"04","population":3543719,"loc":{"type":"Point","coordinates":[120.28857,31.56887]}},{"cityId":1791121,"name":"Changde","altName":"","country":"CN","featureCode":"PPLA3","adminCode":"11","population":517780,"loc":{"type":"Point","coordinates":[111.69844,29.03205]}},{"cityId":1791236,"name":"Wuhu","altName":"","country":"CN","featureCode":"PPLA2","adminCode":"01","population":507524,"loc":{"type":"Point","coordinates":[118.37351,31.33728]}},{"cityId":1791247,"name":"Wuhan","altName":"","country":"CN","featureCode":"PPLA","adminCode":"12","population":9785388,"loc":{"type":"Point","coordinates":[114.26667,30.58333]}},{"cityId":1791249,"name":"Wuhai","altName":"","country":"CN","featureCode":"PPLA2","adminCode":"20","population":218427,"loc":{"type":"Point","coordinates":[106.81583,39.68442]}},{"cityId":1791388,"name":"Wenzhou","altName":"","country":"CN","featureCode":"PPL","adminCode":"02","population":865672,"loc":{"type":"Point","coordinates":[120.66682,27.99942]}},{"cityId":1791681,"name":"Weifang","altName":"","country":"CN","featureCode":"PPL","adminCode":"25","population":394732,"loc":{"type":"Point","coordinates":[119.10194,36.71]}},{"cityId":1792260,"name":"Wafangdian","altName":"","country":"CN","featureCode":"PPL","adminCode":"19","population":250591,"loc":{"type":"Point","coordinates":[122.00806,39.61833]}},{"cityId":1792621,"name":"Wusong","altName":"","country":"CN","featureCode":"PPLA3","adminCode":"01","population":312588,"loc":{"type":"Point","coordinates":[117.78333,30.95]}},{"cityId":1792892,"name":"Tianshui","altName":"","country":"CN","featureCode":"PPLA4","adminCode":"15","population":3500000,"loc":{"type":"Point","coordinates":[105.74238,34.57952]}},{"cityId":1792947,"name":"Tianjin","altName":"","country":"CN","featureCode":"PPLA","adminCode":"28","population":11090314,"loc":{"type":"Point","coordinates":[117.17667,39.14222]}},{"cityId":1793346,"name":"Tangshan","altName":"","country":"CN","featureCode":"PPL","adminCode":"10","population":3372102,"loc":{"type":"Point","coordinates":[118.18333,39.63333]}},{"cityId":1793424,"name":"Tanggu","altName":"","country":"CN","featureCode":"PPL","adminCode":"28","population":535298,"loc":{"type":"Point","coordinates":[117.64694,39.02111]}},{"cityId":1793505,"name":"Taizhou","altName":"","country":"CN","featureCode":"PPLA3","adminCode":"04","population":612356,"loc":{"type":"Point","coordinates":[119.90812,32.49069]}},{"cityId":1793511,"name":"Taiyuan","altName":"","country":"CN","featureCode":"PPLA","adminCode":"24","population":3426519,"loc":{"type":"Point","coordinates":[112.56028,37.86944]}},{"cityId":1793724,"name":"Tai’an","altName":"","country":"CN","featureCode":"PPL","adminCode":"25","population":5499000,"loc":{"type":"Point","coordinates":[117.12,36.18528]}},{"cityId":1793743,"name":"Suzhou","altName":"","country":"CN","featureCode":"PPL","adminCode":"01","population":205130,"loc":{"type":"Point","coordinates":[116.97889,33.63611]}},{"cityId":1793879,"name":"Suizhou","altName":"","country":"CN","featureCode":"PPL","adminCode":"12","population":323945,"loc":{"type":"Point","coordinates":[113.36306,31.71111]}},{"cityId":1794903,"name":"Shiyan","altName":"","country":"CN","featureCode":"PPLA2","adminCode":"12","population":3460000,"loc":{"type":"Point","coordinates":[110.77806,32.6475]}},{"cityId":1795060,"name":"Shiqi","altName":"","country":"CN","featureCode":"PPLA3","adminCode":"30","population":342306,"loc":{"type":"Point","coordinates":[113.38521,22.51682]}},{"cityId":1795196,"name":"Tongchuanshi","altName":"","country":"CN","featureCode":"PPL","adminCode":"26","population":223603,"loc":{"type":"Point","coordinates":[109.08495,35.07474]}},{"cityId":1795270,"name":"Shijiazhuang","altName":"","country":"CN","featureCode":"PPLA","adminCode":"10","population":2834942,"loc":{"type":"Point","coordinates":[114.47861,38.04139]}},{"cityId":1795565,"name":"Shenzhen","altName":"","country":"CN","featureCode":"PPLA2","adminCode":"30","population":10358381,"loc":{"type":"Point","coordinates":[114.0683,22.54554]}},{"cityId":1795816,"name":"Shashi","altName":"","country":"CN","featureCode":"PPL","adminCode":"12","population":498780,"loc":{"type":"Point","coordinates":[112.24472,30.30722]}},{"cityId":1795855,"name":"Shaoxing","altName":"","country":"CN","featureCode":"PPLA3","adminCode":"02","population":421283,"loc":{"type":"Point","coordinates":[120.57864,30.00237]}},{"cityId":1795874,"name":"Shaoguan","altName":"","country":"CN","featureCode":"PPLA2","adminCode":"30","population":628749,"loc":{"type":"Point","coordinates":[113.58333,24.8]}},{"cityId":1795940,"name":"Shantou","altName":"","country":"CN","featureCode":"PPLA2","adminCode":"30","population":5329024,"loc":{"type":"Point","coordinates":[116.71479,23.36814]}},{"cityId":1796236,"name":"Shanghai","altName":"","country":"CN","featureCode":"PPLA","adminCode":"23","population":22315474,"loc":{"type":"Point","coordinates":[121.45806,31.22222]}},{"cityId":1796663,"name":"Sanming","altName":"","country":"CN","featureCode":"PPLA2","adminCode":"07","population":209444,"loc":{"type":"Point","coordinates":[117.61861,26.24861]}},{"cityId":1797121,"name":"Jieyang","altName":"","country":"CN","featureCode":"PPLA2","adminCode":"30","population":1001985,"loc":{"type":"Point","coordinates":[116.36581,23.5418]}},{"cityId":1797132,"name":"Rizhao","altName":"","country":"CN","featureCode":"PPLA3","adminCode":"25","population":246387,"loc":{"type":"Point","coordinates":[119.45528,35.4275]}},{"cityId":1797595,"name":"Qinhuangdao","altName":"","country":"CN","featureCode":"PPLA2","adminCode":"10","population":759718,"loc":{"type":"Point","coordinates":[119.58833,39.93167]}},{"cityId":1797873,"name":"Huai'an","altName":"","country":"CN","featureCode":"PPL","adminCode":"04","population":555230,"loc":{"type":"Point","coordinates":[119.01917,33.58861]}},{"cityId":1797929,"name":"Qingdao","altName":"","country":"CN","featureCode":"PPLA2","adminCode":"25","population":3718835,"loc":{"type":"Point","coordinates":[120.38042,36.06488]}},{"cityId":1798422,"name":"Puyang Chengguanzhen","altName":"","country":"CN","featureCode":"PPLA3","adminCode":"09","population":666322,"loc":{"type":"Point","coordinates":[115.01409,35.70506]}},{"cityId":1798425,"name":"Puyang","altName":"","country":"CN","featureCode":"PPLA3","adminCode":"02","population":3590000,"loc":{"type":"Point","coordinates":[119.88872,29.45679]}},{"cityId":1798449,"name":"Putian","altName":"","country":"CN","featureCode":"PPLA2","adminCode":"07","population":376558,"loc":{"type":"Point","coordinates":[119.01028,25.43944]}},{"cityId":1798654,"name":"Pingxiang","altName":"","country":"CN","featureCode":"PPLA2","adminCode":"03","population":372123,"loc":{"type":"Point","coordinates":[113.85353,27.61672]}},{"cityId":1798827,"name":"Pingdingshan","altName":"","country":"CN","featureCode":"PPL","adminCode":"09","population":889675,"loc":{"type":"Point","coordinates":[113.30119,33.73847]}},{"cityId":1798998,"name":"Dadukou","altName":"","country":"CN","featureCode":"PPLA3","adminCode":"32","population":461513,"loc":{"type":"Point","coordinates":[101.70539,26.5479]}},{"cityId":1799397,"name":"Ningbo","altName":"","country":"CN","featureCode":"PPLA2","adminCode":"02","population":3491597,"loc":{"type":"Point","coordinates":[121.54945,29.87819]}},{"cityId":1799491,"name":"Neijiang","altName":"","country":"CN","featureCode":"PPLA3","adminCode":"32","population":546854,"loc":{"type":"Point","coordinates":[105.06216,29.58354]}},{"cityId":1799629,"name":"Nanyang","altName":"","country":"CN","featureCode":"PPL","adminCode":"09","population":251532,"loc":{"type":"Point","coordinates":[112.53278,32.99472]}},{"cityId":1799722,"name":"Nantong","altName":"","country":"CN","featureCode":"PPLA2","adminCode":"04","population":666251,"loc":{"type":"Point","coordinates":[120.87472,32.03028]}},{"cityId":1799869,"name":"Nanning","altName":"","country":"CN","featureCode":"PPLA","adminCode":"16","population":803788,"loc":{"type":"Point","coordinates":[108.31667,22.81667]}},{"cityId":1799962,"name":"Nanjing","altName":"","country":"CN","featureCode":"PPLA","adminCode":"04","population":7165292,"loc":{"type":"Point","coordinates":[118.77778,32.06167]}},{"cityId":1800146,"name":"Nanchong","altName":"","country":"CN","featureCode":"PPLA3","adminCode":"32","population":7150000,"loc":{"type":"Point","coordinates":[106.08473,30.79508]}},{"cityId":1800163,"name":"Nanchang","altName":"","country":"CN","featureCode":"PPLA","adminCode":"03","population":2357839,"loc":{"type":"Point","coordinates":[115.85306,28.68396]}},{"cityId":1800627,"name":"Mianyang","altName":"","country":"CN","featureCode":"PPLA3","adminCode":"32","population":264136,"loc":{"type":"Point","coordinates":[104.68168,31.46784]}},{"cityId":1801757,"name":"Luqiao","altName":"","country":"CN","featureCode":"PPL","adminCode":"02","population":427890,"loc":{"type":"Point","coordinates":[121.37491,28.58023]}},{"cityId":1801792,"name":"Luoyang","altName":"","country":"CN","featureCode":"PPL","adminCode":"09","population":1390581,"loc":{"type":"Point","coordinates":[112.45361,34.68361]}},{"cityId":1801934,"name":"Luohe","altName":"","country":"CN","featureCode":"PPLA2","adminCode":"09","population":417356,"loc":{"type":"Point","coordinates":[114.04272,33.56394]}},{"cityId":1802204,"name":"Luancheng","altName":"","country":"CN","featureCode":"PPL","adminCode":"10","population":597130,"loc":{"type":"Point","coordinates":[114.65167,37.87917]}},{"cityId":1802875,"name":"Guankou","altName":"","country":"CN","featureCode":"PPLA3","adminCode":"11","population":1380000,"loc":{"type":"Point","coordinates":[113.62709,28.15861]}},{"cityId":1803318,"name":"Linyi","altName":"","country":"CN","featureCode":"PPL","adminCode":"25","population":270669,"loc":{"type":"Point","coordinates":[118.34278,35.06306]}},{"cityId":1803331,"name":"Linxia Chengguanzhen","altName":"","country":"CN","featureCode":"PPLA3","adminCode":"15","population":202402,"loc":{"type":"Point","coordinates":[103.20639,35.60028]}},{"cityId":1803567,"name":"Linfen","altName":"","country":"CN","featureCode":"PPL","adminCode":"24","population":232566,"loc":{"type":"Point","coordinates":[111.51889,36.08889]}},{"cityId":1803834,"name":"Liaocheng","altName":"","country":"CN","featureCode":"PPLA2","adminCode":"25","population":226930,"loc":{"type":"Point","coordinates":[115.97766,36.45596]}},{"cityId":1803936,"name":"Wuwei","altName":"","country":"CN","featureCode":"PPLA2","adminCode":"15","population":493092,"loc":{"type":"Point","coordinates":[102.63202,37.92672]}},{"cityId":1804386,"name":"Laohekou","altName":"","country":"CN","featureCode":"PPL","adminCode":"12","population":253112,"loc":{"type":"Point","coordinates":[111.66778,32.38583]},"muni":"1804385"},{"cityId":1804430,"name":"Lanzhou","altName":"","country":"CN","featureCode":"PPLA","adminCode":"15","population":2628426,"loc":{"type":"Point","coordinates":[103.83987,36.05701]}},{"cityId":1804540,"name":"Langfang","altName":"","country":"CN","featureCode":"PPL","adminCode":"10","population":720119,"loc":{"type":"Point","coordinates":[116.69472,39.50972]}},{"cityId":1804651,"name":"Kunming","altName":"","country":"CN","featureCode":"PPLA","adminCode":"29","population":3855346,"loc":{"type":"Point","coordinates":[102.71833,25.03889]}},{"cityId":1804879,"name":"Kaifeng","altName":"","country":"CN","featureCode":"PPL","adminCode":"09","population":900000,"loc":{"type":"Point","coordinates":[114.30742,34.7986]}},{"cityId":1805179,"name":"Jiujiang","altName":"","country":"CN","featureCode":"PPLA2","adminCode":"03","population":258807,"loc":{"type":"Point","coordinates":[116.00206,29.70475]}},{"cityId":1805298,"name":"Jinzhou","altName":"","country":"CN","featureCode":"PPL","adminCode":"19","population":215386,"loc":{"type":"Point","coordinates":[121.71667,39.1]}},{"cityId":1805518,"name":"Jining","altName":"","country":"CN","featureCode":"PPL","adminCode":"25","population":450327,"loc":{"type":"Point","coordinates":[116.58139,35.405]}},{"cityId":1805618,"name":"Jingling","altName":"","country":"CN","featureCode":"PPL","adminCode":"12","population":224871,"loc":{"type":"Point","coordinates":[113.1,30.65]}},{"cityId":1805680,"name":"Jingdezhen","altName":"","country":"CN","featureCode":"PPLA2","adminCode":"03","population":310565,"loc":{"type":"Point","coordinates":[117.20789,29.2947]}},{"cityId":1805741,"name":"Jincheng","altName":"","country":"CN","featureCode":"PPLA2","adminCode":"24","population":332650,"loc":{"type":"Point","coordinates":[112.83278,35.50222]}},{"cityId":1805753,"name":"Jinan","altName":"","country":"CN","featureCode":"PPLA","adminCode":"25","population":4335989,"loc":{"type":"Point","coordinates":[116.99722,36.66833]}},{"cityId":1805953,"name":"Jiaxing","altName":"","country":"CN","featureCode":"PPLA2","adminCode":"02","population":466101,"loc":{"type":"Point","coordinates":[120.75,30.7522]}},{"cityId":1805987,"name":"Jiaozuo","altName":"","country":"CN","featureCode":"PPL","adminCode":"09","population":517540,"loc":{"type":"Point","coordinates":[113.23306,35.23972]}},{"cityId":1806299,"name":"Jiangmen","altName":"","country":"CN","featureCode":"PPLA2","adminCode":"30","population":532419,"loc":{"type":"Point","coordinates":[113.08333,22.58333]}},{"cityId":1806408,"name":"Yangjiang","altName":"","country":"CN","featureCode":"PPLA2","adminCode":"30","population":399735,"loc":{"type":"Point","coordinates":[111.96272,21.85563]}},{"cityId":1806445,"name":"Ji’an","altName":"","country":"CN","featureCode":"PPLA2","adminCode":"03","population":245000,"loc":{"type":"Point","coordinates":[114.97927,27.11716]}},{"cityId":1806466,"name":"Guangyuan","altName":"","country":"CN","featureCode":"PPL","adminCode":"32","population":213365,"loc":{"type":"Point","coordinates":[105.823,32.44201]}},{"cityId":1806488,"name":"Qionghai","altName":"","country":"CN","featureCode":"PPLA2","adminCode":"31","population":480000,"loc":{"type":"Point","coordinates":[110.46417,19.2425]}},{"cityId":1806776,"name":"Huizhou","altName":"","country":"CN","featureCode":"PPLA2","adminCode":"30","population":289201,"loc":{"type":"Point","coordinates":[114.41523,23.11147]}},{"cityId":1806988,"name":"Huayin","altName":"","country":"CN","featureCode":"PPL","adminCode":"26","population":242488,"loc":{"type":"Point","coordinates":[110.06639,34.56528]}},{"cityId":1807234,"name":"Huangshi","altName":"","country":"CN","featureCode":"PPLA2","adminCode":"12","population":688090,"loc":{"type":"Point","coordinates":[115.04814,30.24706]}},{"cityId":1807508,"name":"Huanggang","altName":"","country":"CN","featureCode":"PPLA3","adminCode":"30","population":225956,"loc":{"type":"Point","coordinates":[116.99961,23.67704]}},{"cityId":1807681,"name":"Huainan","altName":"","country":"CN","featureCode":"PPL","adminCode":"01","population":1027655,"loc":{"type":"Point","coordinates":[116.99694,32.62639]}},{"cityId":1807700,"name":"Huaibei","altName":"","country":"CN","featureCode":"PPL","adminCode":"01","population":903039,"loc":{"type":"Point","coordinates":[116.79167,33.97444]}},{"cityId":1808198,"name":"Heze","altName":"","country":"CN","featureCode":"PPLA2","adminCode":"25","population":254602,"loc":{"type":"Point","coordinates":[115.47358,35.23929]}},{"cityId":1808316,"name":"Yiyang","altName":"","country":"CN","featureCode":"PPL","adminCode":"11","population":202608,"loc":{"type":"Point","coordinates":[112.32833,28.58917]}},{"cityId":1808370,"name":"Hengyang","altName":"","country":"CN","featureCode":"PPL","adminCode":"11","population":759602,"loc":{"type":"Point","coordinates":[112.61888,26.88946]}},{"cityId":1808392,"name":"Hengshui","altName":"","country":"CN","featureCode":"PPL","adminCode":"10","population":456356,"loc":{"type":"Point","coordinates":[115.70111,37.73222]}},{"cityId":1808722,"name":"Hefei","altName":"","country":"CN","featureCode":"PPLA","adminCode":"01","population":3310268,"loc":{"type":"Point","coordinates":[117.28083,31.86389]}},{"cityId":1808770,"name":"Hebi","altName":"","country":"CN","featureCode":"PPL","adminCode":"09","population":244662,"loc":{"type":"Point","coordinates":[114.1925,35.89917]}},{"cityId":1808926,"name":"Hangzhou","altName":"","country":"CN","featureCode":"PPLA","adminCode":"02","population":6241971,"loc":{"type":"Point","coordinates":[120.16142,30.29365]}},{"cityId":1808931,"name":"Hangu","altName":"","country":"CN","featureCode":"PPL","adminCode":"28","population":208369,"loc":{"type":"Point","coordinates":[117.78917,39.24889]}},{"cityId":1808963,"name":"Handan","altName":"","country":"CN","featureCode":"PPL","adminCode":"10","population":1358318,"loc":{"type":"Point","coordinates":[114.46778,36.60056]}},{"cityId":1809061,"name":"Jiaojiang","altName":"","country":"CN","featureCode":"PPLX","adminCode":"02","population":470804,"loc":{"type":"Point","coordinates":[121.47331,28.69844]},"muni":"1806069"},{"cityId":1809078,"name":"Haikou","altName":"","country":"CN","featureCode":"PPLA","adminCode":"31","population":615835,"loc":{"type":"Point","coordinates":[110.34167,20.04583]}},{"cityId":1809412,"name":"Guli","altName":"","country":"CN","featureCode":"PPL","adminCode":"02","population":536000,"loc":{"type":"Point","coordinates":[120.03308,28.88162]}},{"cityId":1809461,"name":"Guiyang","altName":"","country":"CN","featureCode":"PPLA","adminCode":"18","population":1171633,"loc":{"type":"Point","coordinates":[106.71667,26.58333]}},{"cityId":1809498,"name":"Guilin","altName":"","country":"CN","featureCode":"PPLA2","adminCode":"16","population":649352,"loc":{"type":"Point","coordinates":[110.28639,25.28194]}},{"cityId":1809858,"name":"Guangzhou","altName":"","country":"CN","featureCode":"PPLA","adminCode":"30","population":11071424,"loc":{"type":"Point","coordinates":[113.25,23.11667]}},{"cityId":1810437,"name":"Gaoping","altName":"","country":"CN","featureCode":"PPLA3","adminCode":"32","population":204368,"loc":{"type":"Point","coordinates":[106.10294,30.77576]}},{"cityId":1810821,"name":"Fuzhou","altName":"","country":"CN","featureCode":"PPLA","adminCode":"07","population":1179720,"loc":{"type":"Point","coordinates":[119.30611,26.06139]}},{"cityId":1811103,"name":"Foshan","altName":"","country":"CN","featureCode":"PPLA2","adminCode":"30","population":3600000,"loc":{"type":"Point","coordinates":[113.13148,23.02677]}},{"cityId":1812101,"name":"Shengli","altName":"","country":"CN","featureCode":"PPLA3","adminCode":"25","population":306450,"loc":{"type":"Point","coordinates":[118.49165,37.46271]}},{"cityId":1812545,"name":"Dongguan","altName":"","country":"CN","featureCode":"PPLA2","adminCode":"30","population":8000000,"loc":{"type":"Point","coordinates":[113.74866,23.01797]}},{"cityId":1812955,"name":"Dezhou","altName":"","country":"CN","featureCode":"PPLA2","adminCode":"25","population":379555,"loc":{"type":"Point","coordinates":[116.31046,37.45127]}},{"cityId":1813253,"name":"Lijiang","altName":"","country":"CN","featureCode":"PPL","adminCode":"29","population":1137600,"loc":{"type":"Point","coordinates":[100.22072,26.86879]}},{"cityId":1814082,"name":"Daliang","altName":"","country":"CN","featureCode":"PPLA4","adminCode":"30","population":210411,"loc":{"type":"Point","coordinates":[113.2503,22.84067]}},{"cityId":1814087,"name":"Dalian","altName":"","country":"CN","featureCode":"PPL","adminCode":"19","population":4087733,"loc":{"type":"Point","coordinates":[121.60222,38.91222]}},{"cityId":1814757,"name":"Chuzhou","altName":"","country":"CN","featureCode":"PPL","adminCode":"01","population":280582,"loc":{"type":"Point","coordinates":[118.29778,32.32194]}},{"cityId":1814906,"name":"Chongqing","altName":"","country":"CN","featureCode":"PPLA","adminCode":"33","population":7457600,"loc":{"type":"Point","coordinates":[106.55278,29.56278]}},{"cityId":1815286,"name":"Chengdu","altName":"","country":"CN","featureCode":"PPLA","adminCode":"32","population":7415590,"loc":{"type":"Point","coordinates":[104.06667,30.66667]}},{"cityId":1815395,"name":"Chaozhou","altName":"","country":"CN","featureCode":"PPLA2","adminCode":"30","population":424787,"loc":{"type":"Point","coordinates":[116.62262,23.65396]}},{"cityId":1815456,"name":"Changzhou","altName":"","country":"CN","featureCode":"PPLA2","adminCode":"04","population":949018,"loc":{"type":"Point","coordinates":[119.95401,31.77359]}},{"cityId":1815463,"name":"Changzhi","altName":"","country":"CN","featureCode":"PPL","adminCode":"24","population":699514,"loc":{"type":"Point","coordinates":[111.73861,35.20889]}},{"cityId":1815577,"name":"Changsha","altName":"","country":"CN","featureCode":"PPLA","adminCode":"11","population":3093980,"loc":{"type":"Point","coordinates":[112.97087,28.19874]}},{"cityId":1816080,"name":"Cangzhou","altName":"","country":"CN","featureCode":"PPL","adminCode":"10","population":527681,"loc":{"type":"Point","coordinates":[116.86667,38.31667]}},{"cityId":1816440,"name":"Bengbu","altName":"","country":"CN","featureCode":"PPL","adminCode":"01","population":576648,"loc":{"type":"Point","coordinates":[117.36083,32.94083]}},{"cityId":1816670,"name":"Beijing","altName":"","country":"CN","featureCode":"PPLC","adminCode":"22","population":11716620,"loc":{"type":"Point","coordinates":[116.39723,39.9075]}},{"cityId":1816705,"name":"Beihai","altName":"","country":"CN","featureCode":"PPL","adminCode":"16","population":289568,"loc":{"type":"Point","coordinates":[109.1,21.48333]}},{"cityId":1816971,"name":"Baoding","altName":"","country":"CN","featureCode":"PPL","adminCode":"10","population":995652,"loc":{"type":"Point","coordinates":[115.49028,38.85111]}},{"cityId":1817720,"name":"Shangyu","altName":"","country":"CN","featureCode":"PPL","adminCode":"02","population":770000,"loc":{"type":"Point","coordinates":[120.87111,30.01556]}},{"cityId":1817968,"name":"Anshun","altName":"","country":"CN","featureCode":"PPL","adminCode":"18","population":351936,"loc":{"type":"Point","coordinates":[105.93333,26.25]}},{"cityId":1817993,"name":"Anqing","altName":"","country":"CN","featureCode":"PPLA2","adminCode":"01","population":358661,"loc":{"type":"Point","coordinates":[117.04723,30.51365]}},{"cityId":1886760,"name":"Suzhou","altName":"","country":"CN","featureCode":"PPLA2","adminCode":"04","population":5345961,"loc":{"type":"Point","coordinates":[120.59538,31.30408]}},{"cityId":1915223,"name":"Zhongshan","altName":"","country":"CN","featureCode":"PPL","adminCode":"30","population":3121275,"loc":{"type":"Point","coordinates":[110.5723,21.31992]}},{"cityId":1917790,"name":"Dadonghai","altName":"","country":"CN","featureCode":"PPL","adminCode":"31","population":2000000,"loc":{"type":"Point","coordinates":[109.51028,18.22056]}},{"cityId":1927639,"name":"Yueyang","altName":"","country":"CN","featureCode":"PPL","adminCode":"11","population":1200000,"loc":{"type":"Point","coordinates":[113.09481,29.37455]}},{"cityId":2033196,"name":"Zhangjiakou","altName":"","country":"CN","featureCode":"PPL","adminCode":"10","population":692602,"loc":{"type":"Point","coordinates":[114.87944,40.81]}},{"cityId":2033370,"name":"Yingkou","altName":"","country":"CN","featureCode":"PPLA2","adminCode":"19","population":591159,"loc":{"type":"Point","coordinates":[122.22833,40.66482]}},{"cityId":2033467,"name":"Yanji","altName":"","country":"CN","featureCode":"PPL","adminCode":"05","population":326957,"loc":{"type":"Point","coordinates":[129.50778,42.9075]}},{"cityId":2033574,"name":"Zhangjiakou Shi Xuanhua Qu","altName":"","country":"CN","featureCode":"PPLA3","adminCode":"10","population":373422,"loc":{"type":"Point","coordinates":[115.04472,40.61028]}},{"cityId":2034400,"name":"Tongliao","altName":"","country":"CN","featureCode":"PPLA2","adminCode":"20","population":261110,"loc":{"type":"Point","coordinates":[122.26528,43.6125]}},{"cityId":2034414,"name":"Tonghua","altName":"","country":"CN","featureCode":"PPLA2","adminCode":"05","population":510000,"loc":{"type":"Point","coordinates":[125.92639,41.71972]},"muni":"2034412"},{"cityId":2034439,"name":"Tieling","altName":"","country":"CN","featureCode":"PPL","adminCode":"19","population":333907,"loc":{"type":"Point","coordinates":[123.84139,42.29306]}},{"cityId":2034655,"name":"Suihua","altName":"","country":"CN","featureCode":"PPLA2","adminCode":"08","population":252245,"loc":{"type":"Point","coordinates":[126.99508,46.63954]}},{"cityId":2034714,"name":"Siping","altName":"","country":"CN","featureCode":"PPL","adminCode":"05","population":555609,"loc":{"type":"Point","coordinates":[124.37785,43.16143]}},{"cityId":2034786,"name":"Shuangyashan","altName":"","country":"CN","featureCode":"PPL","adminCode":"08","population":600000,"loc":{"type":"Point","coordinates":[131.15389,46.63611]}},{"cityId":2034937,"name":"Shenyang","altName":"","country":"CN","featureCode":"PPLA","adminCode":"19","population":6255921,"loc":{"type":"Point","coordinates":[123.43278,41.79222]}},{"cityId":2035225,"name":"Fendou","altName":"","country":"CN","featureCode":"PPLX","adminCode":"08","population":226298,"loc":{"type":"Point","coordinates":[124.86283,46.64142]}},{"cityId":2035261,"name":"Taihecun","altName":"","country":"CN","featureCode":"PPL","adminCode":"08","population":345033,"loc":{"type":"Point","coordinates":[130.85048,45.76347]}},{"cityId":2035265,"name":"Qiqihar","altName":"","country":"CN","featureCode":"PPLA2","adminCode":"08","population":882364,"loc":{"type":"Point","coordinates":[123.96045,47.34088]}},{"cityId":2035513,"name":"Panshan","altName":"","country":"CN","featureCode":"PPL","adminCode":"19","population":625040,"loc":{"type":"Point","coordinates":[122.04944,41.18806]}},{"cityId":2035715,"name":"Mudanjiang","altName":"","country":"CN","featureCode":"PPLA2","adminCode":"08","population":665915,"loc":{"type":"Point","coordinates":[129.6,44.58333]}},{"cityId":2036109,"name":"Liaoyuan","altName":"","country":"CN","featureCode":"PPL","adminCode":"05","population":465249,"loc":{"type":"Point","coordinates":[125.13583,42.90361]}},{"cityId":2036113,"name":"Liaoyang","altName":"","country":"CN","featureCode":"PPL","adminCode":"19","population":687890,"loc":{"type":"Point","coordinates":[123.17306,41.27194]}},{"cityId":2036389,"name":"Jixi","altName":"","country":"CN","featureCode":"PPLA2","adminCode":"08","population":403759,"loc":{"type":"Point","coordinates":[130.95718,45.30109]}},{"cityId":2036427,"name":"Jinzhou","altName":"","country":"CN","featureCode":"PPL","adminCode":"19","population":604269,"loc":{"type":"Point","coordinates":[121.14167,41.10778]}},{"cityId":2036434,"name":"Lianshan","altName":"","country":"CN","featureCode":"PPLA3","adminCode":"19","population":313247,"loc":{"type":"Point","coordinates":[120.85327,40.76432]}},{"cityId":2036458,"name":"Jining","altName":"","country":"CN","featureCode":"PPL","adminCode":"20","population":258757,"loc":{"type":"Point","coordinates":[113.10583,41.0275]}},{"cityId":2036502,"name":"Jilin","altName":"","country":"CN","featureCode":"PPL","adminCode":"05","population":1881977,"loc":{"type":"Point","coordinates":[126.56028,43.85083]}},{"cityId":2036581,"name":"Jiamusi","altName":"","country":"CN","featureCode":"PPLA2","adminCode":"08","population":549549,"loc":{"type":"Point","coordinates":[130.31633,46.79927]}},{"cityId":2036670,"name":"Hulan Ergi","altName":"","country":"CN","featureCode":"PPL","adminCode":"08","population":265344,"loc":{"type":"Point","coordinates":[123.63333,47.20417]}},{"cityId":2036892,"name":"Hohhot","altName":"","country":"CN","featureCode":"PPLA","adminCode":"20","population":774477,"loc":{"type":"Point","coordinates":[111.65222,40.81056]}},{"cityId":2036986,"name":"Hegang","altName":"","country":"CN","featureCode":"PPLA2","adminCode":"08","population":743307,"loc":{"type":"Point","coordinates":[130.30012,47.35118]}},{"cityId":2037013,"name":"Harbin","altName":"","country":"CN","featureCode":"PPLA","adminCode":"08","population":5878939,"loc":{"type":"Point","coordinates":[126.65,45.75]}},{"cityId":2037078,"name":"Hailar","altName":"","country":"CN","featureCode":"PPLA3","adminCode":"20","population":211066,"loc":{"type":"Point","coordinates":[119.7,49.2]}},{"cityId":2037346,"name":"Fuxin","altName":"","country":"CN","featureCode":"PPL","adminCode":"19","population":689050,"loc":{"type":"Point","coordinates":[121.65889,42.01556]}},{"cityId":2037355,"name":"Fushun","altName":"","country":"CN","featureCode":"PPLA2","adminCode":"19","population":1400646,"loc":{"type":"Point","coordinates":[123.94363,41.88669]}},{"cityId":2037799,"name":"Datong","altName":"","country":"CN","featureCode":"PPL","adminCode":"24","population":1052678,"loc":{"type":"Point","coordinates":[113.29139,40.09361]}},{"cityId":2037860,"name":"Daqing","altName":"","country":"CN","featureCode":"PPL","adminCode":"08","population":203488,"loc":{"type":"Point","coordinates":[125,46.58333]}},{"cityId":2037886,"name":"Dandong","altName":"","country":"CN","featureCode":"PPL","adminCode":"19","population":631973,"loc":{"type":"Point","coordinates":[124.39472,40.12917]}},{"cityId":2038067,"name":"Chifeng","altName":"","country":"CN","featureCode":"PPLA2","adminCode":"20","population":346654,"loc":{"type":"Point","coordinates":[118.96361,42.26833]}},{"cityId":2038087,"name":"Chengde","altName":"","country":"CN","featureCode":"PPL","adminCode":"10","population":449325,"loc":{"type":"Point","coordinates":[117.95883,40.9519]},"muni":"2038084"},{"cityId":2038120,"name":"Chaoyang","altName":"","country":"CN","featureCode":"PPLA2","adminCode":"19","population":410005,"loc":{"type":"Point","coordinates":[120.45861,41.57028]}},{"cityId":2038180,"name":"Changchun","altName":"","country":"CN","featureCode":"PPLA","adminCode":"05","population":4193073,"loc":{"type":"Point","coordinates":[125.32278,43.88]}},{"cityId":2038300,"name":"Benxi","altName":"","country":"CN","featureCode":"PPL","adminCode":"19","population":987717,"loc":{"type":"Point","coordinates":[123.765,41.28861]}},{"cityId":2038365,"name":"Bei’an","altName":"","country":"CN","featureCode":"PPL","adminCode":"08","population":436444,"loc":{"type":"Point","coordinates":[126.6,48.26667]}},{"cityId":2038432,"name":"Baotou","altName":"","country":"CN","featureCode":"PPL","adminCode":"20","population":1301768,"loc":{"type":"Point","coordinates":[110.01669,40.58337]}},{"cityId":2038569,"name":"Baicheng","altName":"","country":"CN","featureCode":"PPLA2","adminCode":"05","population":316970,"loc":{"type":"Point","coordinates":[122.82076,45.60746]}},{"cityId":2038632,"name":"Anshan","altName":"","country":"CN","featureCode":"PPL","adminCode":"19","population":1199275,"loc":{"type":"Point","coordinates":[122.99,41.12361]}},{"cityId":7283386,"name":"Changshu City","altName":"","country":"CN","featureCode":"PPL","adminCode":"04","population":1047700,"loc":{"type":"Point","coordinates":[120.74221,31.64615]}},{"cityId":7304020,"name":"Fenghuang","altName":"","country":"CN","featureCode":"PPL","adminCode":"11","population":370000,"loc":{"type":"Point","coordinates":[109.59961,27.93557]}},{"cityId":7602670,"name":"Zhu Cheng City","altName":"","country":"CN","featureCode":"PPLA3","adminCode":"25","population":1000000,"loc":{"type":"Point","coordinates":[119.40259,35.99502]}},{"cityId":8347664,"name":"Ordos","altName":"","country":"CN","featureCode":"PPL","adminCode":"20","population":1940653,"loc":{"type":"Point","coordinates":[109.78157,39.6086]}},{"cityId":8505006,"name":"Wenshan City","altName":"","country":"CN","featureCode":"PPLA2","adminCode":"29","population":450000,"loc":{"type":"Point","coordinates":[104.25047,23.36306]}},{"cityId":8533133,"name":"Liupanshui","altName":"","country":"CN","featureCode":"PPL","adminCode":"18","population":251900,"loc":{"type":"Point","coordinates":[104.83333,26.59444]}},{"cityId":9931406,"name":"Jianshui","altName":"","country":"CN","featureCode":"PPL","adminCode":"29","population":490000,"loc":{"type":"Point","coordinates":[101.224,24.2774]}},{"cityId":11694038,"name":"Huocheng","altName":"","country":"CN","featureCode":"PPLA3","adminCode":"13","population":360000,"loc":{"type":"Point","coordinates":[80.87173,44.05305]}},{"cityId":11838258,"name":"Bayan Nur","altName":"","country":"CN","featureCode":"PPL","adminCode":"20","population":1760000,"loc":{"type":"Point","coordinates":[107.38599,40.74143]}},{"cityId":3665900,"name":"Villavicencio","altName":"","country":"CO","featureCode":"PPLA","adminCode":"19","population":321717,"loc":{"type":"Point","coordinates":[-73.62664,4.142]}},{"cityId":3666304,"name":"Valledupar","altName":"","country":"CO","featureCode":"PPLA","adminCode":"10","population":308237,"loc":{"type":"Point","coordinates":[-73.25322,10.46314]}},{"cityId":3667849,"name":"Soledad","altName":"","country":"CO","featureCode":"PPLA2","adminCode":"04","population":342556,"loc":{"type":"Point","coordinates":[-74.76459,10.91843]}},{"cityId":3667905,"name":"Soacha","altName":"","country":"CO","featureCode":"PPLA2","adminCode":"33","population":313945,"loc":{"type":"Point","coordinates":[-74.21682,4.57937]}},{"cityId":3667983,"name":"Sincelejo","altName":"","country":"CO","featureCode":"PPLA","adminCode":"27","population":261187,"loc":{"type":"Point","coordinates":[-75.39778,9.30472]}},{"cityId":3668605,"name":"Santa Marta","altName":"","country":"CO","featureCode":"PPLA","adminCode":"38","population":431781,"loc":{"type":"Point","coordinates":[-74.19904,11.24079]}},{"cityId":3671916,"name":"Popayán","altName":"","country":"CO","featureCode":"PPLA","adminCode":"09","population":258653,"loc":{"type":"Point","coordinates":[-76.61316,2.43823]}},{"cityId":3672486,"name":"Pereira","altName":"","country":"CO","featureCode":"PPLA","adminCode":"24","population":440118,"loc":{"type":"Point","coordinates":[-75.69611,4.81333]}},{"cityId":3672778,"name":"Pasto","altName":"","country":"CO","featureCode":"PPLA","adminCode":"20","population":382236,"loc":{"type":"Point","coordinates":[-77.28111,1.21361]}},{"cityId":3673164,"name":"Palmira","altName":"","country":"CO","featureCode":"PPLA2","adminCode":"29","population":247986,"loc":{"type":"Point","coordinates":[-76.30361,3.53944]}},{"cityId":3673899,"name":"Neiva","altName":"","country":"CO","featureCode":"PPLA","adminCode":"16","population":352855,"loc":{"type":"Point","coordinates":[-75.28189,2.9273]}},{"cityId":3674453,"name":"Montería","altName":"","country":"CO","featureCode":"PPLA","adminCode":"12","population":272420,"loc":{"type":"Point","coordinates":[-75.88143,8.74798]}},{"cityId":3674962,"name":"Medellín","altName":"","country":"CO","featureCode":"PPLA","adminCode":"02","population":1999979,"loc":{"type":"Point","coordinates":[-75.56359,6.25184]}},{"cityId":3675443,"name":"Manizales","altName":"","country":"CO","featureCode":"PPLA","adminCode":"37","population":357814,"loc":{"type":"Point","coordinates":[-75.51738,5.06889]}},